# LAS format data
~Version Information
VERS.     2.00: CWLS LOG ASCII STANDARD - VERSION 2.0
WRAP.       NO: ONE LINE PER DEPTH STEP
~Well Information
#MNEM   .UNITS    DATA                           DESCRIPTION
#----   ------    ----                           -----------
STRT    .M        29.6000                       :First Index Value
STOP    .M        3321.6001                     :Last Index Value
STEP    .M        0.1000                        :Frame Spacing
NULL    .         -999.2500                     :Absent Value
WELL    .         A08-01                        :Well Name   
FLD     .         FINDER_non_standard_22-02-2005  :Field Name  
CNTY    .                                       :County
STAT    .                                       :State
CTRY    .         Netherlands                   :Country
LOC     .         Offshore                              :Location
API     .                                       :API Number
DATE    .        01/02/2020                     :Date
COMP    .        Test Oil Company               :Company Name
SRVC    .        Best Logging Services          :Service Company
~Parameter Information
#MNEM   .UNITS    VALUE                          DESCRIPTION
#----   ------    -----                          -----------
TDD     .M        3348.00000                    :Total Depth (Driller)   
UBID    .         8267                          :Unique Borehole Id  
PDAT    .         Mean Sea Level                :Permanent Datum 
EPD     .M           0.00000                    :Elevation of Permanent Datum (PDAT) above Mean Sea Level
LMF     .                                       :Logging Measured From (Name of Logging Elevation Reference) 
APD     .M          35.00000                    :Elevation of Depth Reference (LMF) Above Permanent Datum
~Other Information
composite_curve_qc 
~Curve Information
#MNEM   .UNITS    API CODE                       CURVE DESCRIPTION
#----   ------    --------                       -----------------
DEPT    .M                                      :1     Index curve
GR      .GAPI                                   :2     A08-01
DT      .US/F                                   :3     A08-01
RHOB    .G/C3                                   :4     A08-01
DRHO    .G/C3                                   :5     A08-01
NPHI    .V/V                                    :6     A08-01
~Ascii Log Data
# ...
     605.6000     74.090195    158.996124      2.046728      0.114684      0.605197
     605.7000     75.095322    159.353760      2.058842      0.107386      0.623003
     605.8000     76.297516    159.705627      2.063079      0.098955      0.649229
     605.9000     77.332916    160.011871      2.058402      0.091065      0.677732
     606.0000     77.894043    160.230957      2.047326      0.085940      0.700412
     606.1000     77.903702    160.336456      2.034392      0.086419      0.716909
     606.2000     77.533127    160.335968      2.025088      0.092589      0.730577
     606.3000     76.951736    160.225098      2.023389      0.102446      0.740524
     606.4000     76.439896    160.022186      2.029251      0.112354      0.741244
     606.5000     76.189606    159.768433      2.038861      0.118781      0.733381
     606.6000     76.204941    159.490295      2.048459      0.119149      0.726760
     606.7000     76.190628    159.213837      2.055505      0.114442      0.733727
     606.8000     75.814911    158.956787      2.059796      0.108293      0.754188
     606.9000     74.759705    158.732422      2.062103      0.105045      0.773505
     607.0000     73.171143    158.534637      2.063672      0.106495      0.774361
     607.1000     71.487869    158.353546      2.064164      0.111182      0.752783
     607.2000     70.415558    158.177124      2.059564      0.115568      0.714557
     607.3000     70.287674    157.995117      2.049713      0.116472      0.681466
     607.4000     71.073593    157.806030      2.036384      0.112791      0.666638
     607.5000     72.800629    157.601593      2.021595      0.102952      0.677391
     607.6000     74.333145    157.387817      2.011054      0.093540      0.698237
     607.7000     74.896362    157.175293      2.008192      0.090616      0.717456
     607.8000     74.068756    156.969879      2.014698      0.104194      0.731249
     607.9000     72.927292    156.776550      2.020984      0.123704      0.743155
     608.0000     72.232605    156.593475      2.020134      0.139387      0.755995
     608.1000     72.190018    156.422241      2.010286      0.138350      0.763925
     608.2000     72.306274    156.260376      1.999967      0.128798      0.766266
     608.3000     72.193329    156.101318      1.995579      0.118344      0.763366
     608.4000     71.555176    155.948059      1.999431      0.114358      0.761896
     608.5000     70.688202    155.804565      2.004881      0.112493      0.758210
     608.6000     69.797333    155.670197      2.006576      0.107122      0.743945
     608.7000     69.064209    155.551422      2.006999      0.094828      0.697875
     608.8000     68.424652    155.446075      2.008694      0.080570      0.638895
     608.9000     67.764069    155.351868      2.014374      0.069065      0.584918
     609.0000     67.085602    155.270416      2.023079      0.066924      0.567271
     609.1000     66.492783    155.196655      2.032416      0.070563      0.570902
     609.2000     66.299011    155.136414      2.038857      0.076703      0.577851
     609.3000     66.658371    155.099030      2.043071      0.080696      0.567721
     609.4000     67.340591    155.083099      2.047349      0.083009      0.552975
     609.5000     68.124161    155.115356      2.055991      0.084459      0.569990
     609.6000     68.497223    155.215027      2.067333      0.084916      0.627262
     609.7000     68.454300    155.376434      2.079188      0.084114      0.708731
     609.8000     67.602585    155.648956      2.083584      0.078939      0.778905
     609.9000     66.584671    156.037964      2.080262      0.072709      0.821504
     610.0000     65.663361    156.515594      2.071336      0.067200      0.840028
     610.1000     65.741714    157.094391      2.060420      0.070445      0.839420
     610.2000     66.296906    157.721771      2.050911      0.078257      0.815973
     610.3000     67.121323    158.367523      2.043145      0.088668      0.771753
     610.4000     67.721588    158.924805      2.032352      0.094027      0.706509
     610.5000     68.144684    159.360260      2.016041      0.095325      0.645411
     610.6000     68.404251    159.656860      1.994603      0.093058      0.595904
     610.7000     68.527100    159.653198      1.962075      0.087443      0.597014
     610.8000     68.610779    159.445465      1.930616      0.081941      0.626281
     610.9000     68.676987    159.057068      1.904747      0.077651      0.676927
     611.0000     68.952591    158.449371      1.906749      0.078775      0.737463
     611.1000     69.468369    157.759613      1.923551      0.083263      0.785485
     611.2000     70.258957    157.042267      1.950762      0.090556      0.809244
     611.3000     71.403427    156.381500      1.979046      0.099744      0.782937
     611.4000     72.592209    155.792084      2.002223      0.108044      0.738997
     611.5000     73.575150    155.335388      2.014656      0.113115      0.696468
     611.6000     74.029388    155.026794      2.010956      0.112187      0.699223
     611.7000     74.049927    154.821503      2.000649      0.109190      0.729617
     611.8000     73.607407    154.712158      1.989254      0.106973      0.774836
     611.9000     73.044586    154.676758      1.981727      0.108914      0.773801
     612.0000     72.771332    154.678833      1.977013      0.112688      0.732848
     612.1000     73.220825    154.709473      1.973625      0.115682      0.660177
     612.2000     74.124161    154.762756      1.971383      0.115563      0.595821
     612.3000     74.924988    154.832855      1.970928      0.114457      0.553046
     612.4000     75.006577    154.929626      1.974376      0.116136      0.539130
     612.5000     74.299759    155.052765      1.982305      0.122766      0.555935
     612.6000     73.148727    155.196167      1.992587      0.131925      0.593262
     612.7000     71.904892    155.354004      2.002107      0.138897      0.643030
     612.8000     70.890884    155.502533      2.009180      0.141225      0.686725
     612.9000     70.244629    155.630127      2.014349      0.140694      0.717442
     613.0000     70.282410    155.709595      2.017913      0.140915      0.728572
     613.1000     70.668365    155.731781      2.019637      0.143615      0.728659
     613.2000     71.022064    155.704376      2.019279      0.147522      0.724304
     613.3000     71.015350    155.620758      2.015745      0.148588      0.712745
     613.4000     70.749252    155.499817      2.010701      0.144943      0.692190
     613.5000     70.508530    155.363373      2.006890      0.137376      0.663754
     613.6000     70.691696    155.232056      2.008765      0.128273      0.632224
     613.7000     71.265121    155.117371      2.016024      0.120347      0.607585
     613.8000     71.985825    155.023987      2.025559      0.114055      0.596334
     613.9000     72.571884    154.958313      2.032423      0.107044      0.598548
     614.0000     72.911636    154.909424      2.034113      0.098615      0.600843
     614.1000     73.008865    154.864868      2.031152      0.091979      0.594094
     614.2000     72.855606    154.813660      2.026137      0.094774      0.584109
     614.3000     72.632660    154.747253      2.022460      0.106235      0.577429
     614.4000     72.576935    154.661804      2.020719      0.118285      0.575366
     614.5000     72.885391    154.553101      2.018023      0.120482      0.573455
     614.6000     73.463379    154.426636      2.013809      0.112074      0.567913
     614.7000     73.920105    154.291290      2.010653      0.103449      0.559496
     614.8000     73.779083    154.149200      2.010258      0.105854      0.551702
     614.9000     72.898148    154.005249      2.010858      0.119570      0.545480
     615.0000     71.559738    153.865051      2.008331      0.132034      0.542169
     615.1000     70.204025    153.729187      2.001274      0.131744      0.550567
