# LAS format data
~Version Information
VERS.     2.00: CWLS LOG ASCII STANDARD - VERSION 2.0
WRAP.       NO: ONE LINE PER DEPTH STEP
~Well Information
#MNEM   .UNITS    DATA                           DESCRIPTION
#----   ------    ----                           -----------
STRT    .M        29.6000                       :First Index Value
STOP    .M        3321.6001                     :Last Index Value
STEP    .M        0.1000                        :Frame Spacing
NULL    .         -999.2500                     :Absent Value
WELL    .         A08-01                        :Well Name   
FLD     .         FINDER_non_standard_22-02-2005  :Field Name  
CNTY    .                                       :County
STAT    .                                       :State
CTRY    .         Netherlands                   :Country
LOC     .         Offshore                              :Location
API     .                                       :API Number
DATE    .        01/02/2020                     :Date
COMP    .        Test Oil Company               :Company Name
SRVC    .        Best Logging Services          :Service Company
~Parameter Information
#MNEM   .UNITS    VALUE                          DESCRIPTION
#----   ------    -----                          -----------
TDD     .M        3348.00000                    :Total Depth (Driller)   
UBID    .         8267                          :Unique Borehole Id  
PDAT    .         Mean Sea Level                :Permanent Datum 
EPD     .M           0.00000                    :Elevation of Permanent Datum (PDAT) above Mean Sea Level
LMF     .                                       :Logging Measured From (Name of Logging Elevation Reference) 
APD     .M          35.00000                    :Elevation of Depth Reference (LMF) Above Permanent Datum
~Other Information
composite_curve_qc 
~Curve Information
#MNEM   .UNITS    API CODE                       CURVE DESCRIPTION
#----   ------    --------                       -----------------
DEPT    .M                                      :1     Index curve
GR      .GAPI                                   :2     A08-01
DT      .US/F                                   :3     A08-01
RHOB    .G/C3                                   :4     A08-01
DRHO    .G/C3                                   :5     A08-01
NPHI    .V/V                                    :6     A08-01
~Ascii Log Data
# ...
    1008.8000     85.145599    139.227448      2.193335      0.021079      0.558364
    1008.9000     84.653275    139.005981      2.192569      0.019789      0.579924
    1009.0000     84.194305    138.784576      2.192627      0.018684      0.590162
    1009.1000     83.193130    138.567047      2.195009      0.018633      0.585400
    1009.2000     81.665421    138.366669      2.198817      0.019657      0.571919
    1009.3000     79.979523    138.179230      2.202584      0.021054      0.554925
    1009.4000     78.790771    138.021118      2.203782      0.021793      0.537776
    1009.5000     78.390259    137.902008      2.202247      0.021459      0.525735
    1009.6000     78.541672    137.811127      2.199191      0.020455      0.519052
    1009.7000     79.160004    137.768707      2.196383      0.019416      0.523651
    1009.8000     79.781693    137.764801      2.194682      0.019223      0.534780
    1009.9000     80.287811    137.788391      2.194005      0.019920      0.549181
    1010.0000     80.486633    137.844452      2.194824      0.022220      0.563444
    1010.1000     80.521271    137.901276      2.196455      0.024976      0.567762
    1010.2000     80.436325    137.947632      2.198614      0.027735      0.562239
    1010.3000     80.011429    137.925354      2.201569      0.029128      0.551988
    1010.4000     79.886627    137.840942      2.204983      0.029752      0.550047
    1010.5000     80.194138    137.703308      2.208697      0.029821      0.558227
    1010.6000     81.993835    137.508545      2.213196      0.029955      0.566932
    1010.7000     83.698227    137.300720      2.217825      0.030064      0.565493
    1010.8000     84.844543    137.097626      2.222243      0.030101      0.551393
    1010.9000     83.086823    136.903534      2.224825      0.028216      0.541166
    1011.0000     80.423233    136.714783      2.226499      0.025596      0.541535
    1011.1000     77.563934    136.534271      2.227496      0.022681      0.555275
    1011.2000     75.559204    136.356537      2.228835      0.021779      0.572312
    1011.3000     74.225571    136.201019      2.230303      0.022066      0.580390
    1011.4000     73.603973    136.086609      2.231716      0.023285      0.572026
    1011.5000     73.658813    136.063416      2.232731      0.024055      0.555608
    1011.6000     73.889587    136.109070      2.233639      0.024275      0.549884
    1011.7000     74.053406    136.233612      2.234661      0.023837      0.570565
    1011.8000     74.150833    136.414276      2.234138      0.022808      0.612836
    1011.9000     74.313675    136.609253      2.232062      0.021491      0.645876
    1012.0000     74.709641    136.812347      2.227768      0.019880      0.641354
    1012.1000     75.449188    137.016144      2.222563      0.018718      0.601816
    1012.2000     76.333420    137.218933      2.217970      0.018339      0.555427
    1012.3000     77.222610    137.434143      2.215478      0.019386      0.525929
    1012.4000     77.712784    137.654602      2.215506      0.021505      0.505587
    1012.5000     77.894272    137.877258      2.217070      0.023954      0.489563
    1012.6000     77.947037    138.088165      2.219639      0.025834      0.483716
    1012.7000     78.751602    138.275696      2.222461      0.026673      0.501220
    1012.8000     80.387375    138.454163      2.224943      0.026560      0.534523
    1012.9000     82.738785    138.641296      2.225759      0.025117      0.564697
    1013.0000     84.611206    138.858734      2.224850      0.023131      0.570836
    1013.1000     85.612610    139.113556      2.222939      0.021414      0.557154
    1013.2000     85.454498    139.407776      2.220945      0.021408      0.542731
    1013.3000     85.101379    139.718292      2.218943      0.022514      0.544889
    1013.4000     85.059509    140.035339      2.216351      0.023656      0.565269
    1013.5000     85.321960    140.340149      2.211565      0.023155      0.598877
    1013.6000     85.611282    140.633026      2.205072      0.021472      0.629808
    1013.7000     85.858887    140.912048      2.198100      0.019638      0.646657
    1013.8000     86.434937    141.162872      2.192653      0.018938      0.636872
    1013.9000     87.332947    141.393341      2.189041      0.019101      0.613956
    1014.0000     88.428741    141.608337      2.187174      0.019409      0.592151
    1014.1000     89.670670    141.803406      2.187718      0.019281      0.578553
    1014.2000     90.932541    141.981873      2.189969      0.018951      0.572765
    1014.3000     92.017059    142.140228      2.193692      0.019153      0.576442
    1014.4000     92.551743    142.269318      2.199958      0.020752      0.601852
    1014.5000     92.395233    142.364532      2.207489      0.023086      0.644353
    1014.6000     91.438141    142.419342      2.213138      0.024608      0.683748
    1014.7000     89.436295    142.432983      2.213076      0.024156      0.691507
    1014.8000     86.864273    142.425232      2.207380      0.022473      0.667166
    1014.9000     84.739883    142.420990      2.198888      0.021273      0.633812
    1015.0000     84.134689    142.440765      2.190121      0.021109      0.610858
    1015.1000     85.134232    142.487885      2.183317      0.021077      0.602858
    1015.2000     86.882233    142.547363      2.179330      0.019016      0.599107
    1015.3000     88.287552    142.593750      2.178018      0.013075      0.592387
    1015.4000     88.643036    142.604309      2.178538      0.004249      0.582665
    1015.5000     88.207718    142.574524      2.181840     -0.003055      0.577403
    1015.6000     87.632278    142.521240      2.190359     -0.002600      0.581638
    1015.7000     87.399277    142.481354      2.202439      0.007489      0.594758
    1015.8000     87.297806    142.487946      2.211978      0.022685      0.611427
    1015.9000     87.128052    142.555969      2.214138      0.035435      0.622617
    1016.0000     86.929367    142.670349      2.209599      0.039818      0.617403
    1016.1000     87.038086    142.810272      2.203777      0.036312      0.589134
    1016.2000     87.613434    142.949066      2.201595      0.029803      0.547755
    1016.3000     88.575745    143.064636      2.204134      0.025875      0.515408
    1016.4000     89.775177    143.145416      2.208576      0.025399      0.509547
    1016.5000     90.962799    143.190887      2.212424      0.026936      0.531064
    1016.6000     92.015076    143.213379      2.214846      0.028331      0.567153
    1016.7000     93.009583    143.219604      2.216142      0.029369      0.610702
    1016.8000     94.066711    143.221252      2.216850      0.030055      0.653452
    1016.9000     95.170700    143.228394      2.217376      0.030537      0.682714
    1017.0000     95.976471    143.245667      2.217794      0.030809      0.675258
    1017.1000     96.198196    143.269531      2.218421      0.031050      0.637475
    1017.2000     95.669037    143.288818      2.219704      0.031478      0.598279
    1017.3000     94.199875    143.288025      2.222020      0.032111      0.583374
    1017.4000     92.310440    143.262115      2.224624      0.032457      0.592656
    1017.5000     90.737915    143.217468      2.226077      0.031277      0.605155
    1017.6000     90.013428    143.168030      2.224941      0.026351      0.598240
    1017.7000     89.952774    143.129028      2.222405      0.018172      0.572084
    1017.8000     90.081116    143.107025      2.222024      0.010503      0.542832
    1017.9000     90.030579    143.095825      2.229475      0.011706      0.527866
    1018.0000     89.909668    143.079102      2.241503      0.021822      0.529999
    1018.1000     90.106232    143.041901      2.250008      0.035395      0.545483
    1018.2000     90.880096    142.969788      2.245813      0.042644      0.573271
    1018.3000     91.813049    142.868744      2.232492      0.041176      0.605066
