# LAS format data
~Version Information
VERS.     2.00: CWLS LOG ASCII STANDARD - VERSION 2.0
WRAP.       NO: ONE LINE PER DEPTH STEP
~Well Information
#MNEM   .UNITS    DATA                           DESCRIPTION
#----   ------    ----                           -----------
STRT    .M        29.6000                       :First Index Value
STOP    .M        3321.6001                     :Last Index Value
STEP    .M        0.1000                        :Frame Spacing
NULL    .         -999.2500                     :Absent Value
WELL    .         A08-01                        :Well Name   
FLD     .         FINDER_non_standard_22-02-2005  :Field Name  
CNTY    .                                       :County
STAT    .                                       :State
CTRY    .         Netherlands                   :Country
LOC     .         Offshore                              :Location
API     .                                       :API Number
DATE    .        01/02/2020                     :Date
COMP    .        Test Oil Company               :Company Name
SRVC    .        Best Logging Services          :Service Company
~Parameter Information
#MNEM   .UNITS    VALUE                          DESCRIPTION
#----   ------    -----                          -----------
TDD     .M        3348.00000                    :Total Depth (Driller)   
UBID    .         8267                          :Unique Borehole Id  
PDAT    .         Mean Sea Level                :Permanent Datum 
EPD     .M           0.00000                    :Elevation of Permanent Datum (PDAT) above Mean Sea Level
LMF     .                                       :Logging Measured From (Name of Logging Elevation Reference) 
APD     .M          35.00000                    :Elevation of Depth Reference (LMF) Above Permanent Datum
~Other Information
composite_curve_qc 
~Curve Information
#MNEM   .UNITS    API CODE                       CURVE DESCRIPTION
#----   ------    --------                       -----------------
DEPT    .M                                      :1     Index curve
GR      .GAPI                                   :2     A08-01
DT      .US/F                                   :3     A08-01
RHOB    .G/C3                                   :4     A08-01
DRHO    .G/C3                                   :5     A08-01
NPHI    .V/V                                    :6     A08-01
~Ascii Log Data
# ...
    1191.2000     80.162964    140.751495      2.196810      0.022032      0.553053
    1191.3000     80.263321    140.822144      2.199255      0.023116      0.559425
    1191.4000     80.062912    140.857574      2.202959      0.025277      0.570179
    1191.5000     79.243622    140.859222      2.207127      0.027584      0.586138
    1191.6000     78.430588    140.849426      2.209848      0.028610      0.603517
    1191.7000     77.892273    140.835724      2.210602      0.028009      0.620880
    1191.8000     78.161255    140.820465      2.208618      0.025653      0.630971
    1191.9000     78.724289    140.800537      2.206333      0.023529      0.632038
    1192.0000     79.287903    140.771271      2.205005      0.022646      0.624154
    1192.1000     79.697632    140.720581      2.205689      0.024079      0.611622
    1192.2000     80.092072    140.652679      2.207181      0.026401      0.602666
    1192.3000     80.549545    140.574402      2.208359      0.028355      0.601327
    1192.4000     80.825470    140.509430      2.207644      0.028481      0.600878
    1192.5000     80.814453    140.469666      2.205291      0.027244      0.597368
    1192.6000     80.448318    140.464111      2.201744      0.025254      0.594388
    1192.7000     79.803009    140.488617      2.197703      0.023138      0.616395
    1192.8000     79.098587    140.524017      2.194057      0.021309      0.665755
    1192.9000     78.515869    140.556580      2.191795      0.020124      0.734001
    1193.0000     78.098923    140.582184      2.191687      0.019936      0.793954
    1193.1000     77.826080    140.607147      2.193082      0.020584      0.823226
    1193.2000     77.703934    140.643646      2.195025      0.021912      0.807151
    1193.3000     77.711914    140.701294      2.196970      0.023906      0.755985
    1193.4000     77.812515    140.771942      2.198657      0.026214      0.695998
    1193.5000     78.033600    140.830994      2.199924      0.028189      0.651363
    1193.6000     78.475052    140.844452      2.200622      0.029119      0.632283
    1193.7000     79.173157    140.793091      2.200826      0.028833      0.636290
    1193.8000     80.088974    140.663818      2.200669      0.027530      0.659194
    1193.9000     81.005920    140.473816      2.200225      0.025776      0.688945
    1194.0000     81.688904    140.254883      2.199471      0.024098      0.709660
    1194.1000     82.008347    140.021667      2.198379      0.022730      0.706715
    1194.2000     82.072159    139.784149      2.197439      0.021882      0.681251
    1194.3000     82.032791    139.545105      2.197406      0.021792      0.648501
    1194.4000     81.829590    139.289154      2.198821      0.022792      0.621605
    1194.5000     81.448303    139.010620      2.201153      0.024509      0.605785
    1194.6000     80.874756    138.721283      2.203469      0.026243      0.594222
    1194.7000     79.974976    138.441559      2.205741      0.027764      0.575854
    1194.8000     78.727173    138.209778      2.208119      0.028970      0.547446
    1194.9000     77.412552    138.021088      2.210575      0.029557      0.516933
    1195.0000     76.515350    137.782806      2.212885      0.029022      0.494479
    1195.1000     76.022202    137.411774      2.215798      0.028427      0.482499
    1195.2000     75.564774    136.905334      2.219537      0.028619      0.478902
    1195.3000     75.238998    136.363037      2.221940      0.028012      0.489736
    1195.4000     75.124283    135.928589      2.222131      0.026197      0.507586
    1195.5000     75.164963    135.691345      2.221150      0.024428      0.518774
    1195.6000     75.175583    135.709167      2.219751      0.023712      0.520942
    1195.7000     75.023071    135.967651      2.218627      0.024094      0.518358
    1195.8000     74.797119    136.432495      2.217747      0.024608      0.516693
    1195.9000     74.759445    137.029449      2.216715      0.024466      0.517709
    1196.0000     75.121552    137.612213      2.215314      0.023603      0.522884
    1196.1000     75.941269    138.087799      2.213949      0.022995      0.534018
    1196.2000     77.157791    138.490753      2.213423      0.023956      0.550159
    1196.3000     78.601791    138.903687      2.213665      0.026507      0.563781
    1196.4000     80.198410    139.343048      2.213634      0.029244      0.564726
    1196.5000     81.939163    139.764069      2.212374      0.030423      0.551772
    1196.6000     83.752747    140.138336      2.209933      0.029469      0.535508
    1196.7000     85.436005    140.435944      2.207043      0.026811      0.529619
    1196.8000     86.747635    140.569641      2.204220      0.023413      0.538424
    1196.9000     87.520142    140.544647      2.201675      0.020418      0.556105
    1197.0000     87.517044    140.433594      2.199551      0.018835      0.575618
    1197.1000     86.953934    140.321899      2.198163      0.019089      0.593545
    1197.2000     86.263855    140.229675      2.197776      0.020918      0.610145
    1197.3000     85.865540    140.135468      2.198818      0.024144      0.626864
    1197.4000     85.890945    140.173462      2.200431      0.027600      0.642270
    1197.5000     86.184265    140.389709      2.201705      0.030291      0.651389
    1197.6000     86.416946    140.699677      2.201879      0.031172      0.638966
    1197.7000     86.295517    140.915100      2.201601      0.030946      0.609099
    1197.8000     85.727142    140.987183      2.201653      0.030537      0.573807
    1197.9000     84.415070    141.063080      2.203349      0.031185      0.558724
    1198.0000     82.817947    141.144165      2.205940      0.032641      0.566736
    1198.1000     81.286621    141.199615      2.208460      0.034249      0.593485
    1198.2000     80.015808    141.257355      2.208797      0.034084      0.642168
    1198.3000     78.930313    141.403595      2.207109      0.032195      0.699032
    1198.4000     78.005234    141.669922      2.203824      0.028980      0.755852
    1198.5000     77.494812    141.918121      2.199371      0.025363      0.809091
    1198.6000     77.265823    142.096985      2.195355      0.022509      0.850860
    1198.7000     77.232010    142.203552      2.192704      0.021055      0.874623
    1198.8000     77.168411    142.323181      2.193414      0.022055      0.859798
    1198.9000     77.045944    142.416870      2.195663      0.023891      0.830458
    1199.0000     76.872971    142.421112      2.198350      0.025530      0.801668
    1199.1000     76.850006    142.234039      2.198732      0.025067      0.777375
    1199.2000     76.880020    142.005096      2.197313      0.023253      0.750925
    1199.3000     76.845703    141.864044      2.193985      0.020272      0.711533
    1199.4000     76.537888    141.799561      2.190568      0.017424      0.660897
    1199.5000     76.115982    141.728516      2.187626      0.015075      0.605573
    1199.6000     75.776047    141.551849      2.185994      0.013974      0.553042
    1199.7000     75.743042    141.492462      2.185142      0.014369      0.510475
    1199.8000     75.889465    141.493408      2.184709      0.015650      0.477375
    1199.9000     76.100311    141.413269      2.184902      0.017615      0.466115
    1200.0000     76.332581    140.932251      2.187273      0.020221      0.488159
    1200.1000     76.646027    140.155762      2.191464      0.023231      0.534004
    1200.2000     77.319565    139.234497      2.197719      0.026083      0.600849
    1200.3000     78.086594    138.356995      2.203876      0.028047      0.663059
    1200.4000     78.732590    137.552734      2.209174      0.029071      0.711810
    1200.5000     78.288635    136.827301      2.211108      0.028256      0.711079
    1200.6000     77.246979    136.279877      2.212150      0.027136      0.681244
    1200.7000     75.894791    135.910614      2.213130      0.026191      0.633056
