# LAS format data
~Version Information
VERS.     2.00: CWLS LOG ASCII STANDARD - VERSION 2.0
WRAP.       NO: ONE LINE PER DEPTH STEP
~Well Information
#MNEM   .UNITS    DATA                           DESCRIPTION
#----   ------    ----                           -----------
STRT    .M        29.6000                       :First Index Value
STOP    .M        3321.6001                     :Last Index Value
STEP    .M        0.1000                        :Frame Spacing
NULL    .         -999.2500                     :Absent Value
WELL    .         A08-01                        :Well Name   
FLD     .         FINDER_non_standard_22-02-2005  :Field Name  
CNTY    .                                       :County
STAT    .                                       :State
CTRY    .         Netherlands                   :Country
LOC     .         Offshore                              :Location
API     .                                       :API Number
DATE    .        01/02/2020                     :Date
COMP    .        Test Oil Company               :Company Name
SRVC    .        Best Logging Services          :Service Company
~Parameter Information
#MNEM   .UNITS    VALUE                          DESCRIPTION
#----   ------    -----                          -----------
TDD     .M        3348.00000                    :Total Depth (Driller)   
UBID    .         8267                          :Unique Borehole Id  
PDAT    .         Mean Sea Level                :Permanent Datum 
EPD     .M           0.00000                    :Elevation of Permanent Datum (PDAT) above Mean Sea Level
LMF     .                                       :Logging Measured From (Name of Logging Elevation Reference) 
APD     .M          35.00000                    :Elevation of Depth Reference (LMF) Above Permanent Datum
~Other Information
composite_curve_qc 
~Curve Information
#MNEM   .UNITS    API CODE                       CURVE DESCRIPTION
#----   ------    --------                       -----------------
DEPT    .M                                      :1     Index curve
GR      .GAPI                                   :2     A08-01
DT      .US/F                                   :3     A08-01
RHOB    .G/C3                                   :4     A08-01
DRHO    .G/C3                                   :5     A08-01
NPHI    .V/V                                    :6     A08-01
~Ascii Log Data
# ...
    3312.8001     18.885036     66.102264      2.981071      0.040961      0.039359
    3312.9001     18.606289     67.037399      2.956918      0.043347      0.036819
    3313.0001     18.831116     67.803238      2.923017      0.032381      0.037094
    3313.1001     19.422703     68.307861      2.899741      0.017923      0.038699
    3313.2001     20.296947     68.489929      2.896814      0.008729      0.041033
    3313.3001     21.263397     68.420776      2.908416      0.008903      0.043577
    3313.4001     22.238731     68.221878      2.919434      0.014552      0.046938
    3313.5001     23.217564     67.977142      2.923117      0.020736      0.052285
    3313.6001     24.152676     67.762314      2.918834      0.022786      0.059304
    3313.7001     24.964897     67.577682      2.909897      0.019401      0.066590
    3313.8001     25.607853     67.383453      2.897065      0.011090      0.073643
    3313.9001     26.112869     67.122147      2.882814      0.001393      0.080946
    3314.0001     26.487991     66.754868      2.869891     -0.006117      0.089352
    3314.1001     26.675385     66.284210      2.858402     -0.010695      0.098482
    3314.2001     26.716080     65.753326      2.847016     -0.013121      0.106816
    3314.3001     26.742786     65.201614      2.836067     -0.012675      0.112297
    3314.4001     26.898804     64.654831      2.828796     -0.007368      0.114037
    3314.5001     27.194302     64.105438      2.827835      0.002063      0.112972
    3314.6001     27.477840     63.515816      2.834472      0.012054      0.109724
    3314.7001     27.568176     62.847687      2.846789      0.018655      0.104070
    3314.8001     27.370525     62.077751      2.861124      0.020940      0.095793
    3314.9001     26.828793     61.201210      2.875296      0.020385      0.084565
    3315.0001     26.044323     60.247452      2.888977      0.019555      0.071345
    3315.1001     25.139091     59.268974      2.903474      0.019862      0.057622
    3315.2001     24.132126     58.344063      2.920913      0.021329      0.044961
    3315.3001     23.111221     57.487389      2.942643      0.024891      0.033943
    3315.4001     22.213173     56.688187      2.964887      0.031052      0.024912
    3315.5001     21.692200     55.964722      2.974199      0.039248      0.019635
    3315.6001     21.395546     55.295097      2.965768      0.044761      0.017009
    3315.7001     21.111557     54.687584      2.943061      0.043823      0.015711
    3315.8001     20.610882     54.186691      2.915634      0.031954      0.015024
    3315.9001     19.961624     53.788994      2.897831      0.016542      0.013859
    3316.0001     19.302338     53.489639      2.897396      0.004361      0.011697
    3316.1001     18.779156     53.260284      2.921498      0.001074      0.007959
    3316.2001     18.405750     53.037712      2.953643      0.002280      0.003614
    3316.3001     18.177288     52.797371      2.980795      0.003869     -0.000476
    3316.4001     18.151424     52.564987      2.993341      0.004266     -0.003500
    3316.5001     18.216034     52.432198      2.995999      0.003579     -0.005712
    3316.6001     18.296619     52.501900      2.992580      0.001957     -0.007429
    3316.7001     18.370796     52.964180      2.985705     -0.000669     -0.008655
    3316.8001     18.489079     53.734421      2.976080     -0.004457     -0.009692
    3316.9001     18.735569     54.865997      2.959222     -0.010874     -0.010795
    3317.0001     19.112705     56.236946      2.894501     -0.029104     -0.011996
    3317.1001     19.466206     57.664268      2.789710     -0.053732     -0.013149
    3317.2001     19.609692     59.120522      2.635233     -0.079956     -0.014091
    3317.3001     19.438072     60.527725      2.469845     -0.083053     -0.014589
    3317.4001     19.122414     61.879501      2.318036     -0.068702     -0.014809
    3317.5001     18.815174     63.253929      2.204869     -0.038977     -0.014854
    3317.6001     18.677845     64.585434      2.134102     -0.013587     -0.014859
    3317.7001     18.666180     65.881638      2.087740      0.004932     -0.014864
    3317.8001     18.766071     66.997314      2.062066      0.010676     -0.014888
    3317.9001     18.890762     67.820190      2.047531      0.009206     -0.014912
    3318.0001     19.009857     68.436722      2.039120      0.004694     -0.014931
    3318.1001     19.044605     68.738968      2.038936      0.002860     -0.014935
    3318.2001     18.981552     68.883606      2.043347      0.006893     -0.014935
    3318.3001     18.852592     68.948349      2.049909      0.015393     -0.014934
    3318.4001     18.770489     68.988281      2.050060      0.022871     -0.014929
    3318.5001     18.772873     69.035431      2.044724      0.024988     -0.014917
    3318.6001     18.844715     69.092422      2.035239      0.021712     -0.014897
    3318.7001     18.715611     69.142044      2.028151      0.014888     -0.014885
    3318.8001     18.458569     69.194885      2.023804      0.009710     -0.014886
    3318.9001     18.102360     69.252808      2.022168      0.007373     -0.014898
    3319.0001     17.892376     69.352142      2.021065      0.006885     -0.014893
    3319.1001     17.843136     69.477234      2.020065      0.006498     -0.014871
    3319.2001     17.978001     69.624008      2.019207      0.005819     -0.014832
    3319.3001     18.488621     69.759964      2.019488      0.005507     -0.014811
    3319.4001     19.080669     69.873764      2.020628      0.005599     -0.014806
    3319.5001     19.623917     69.951035      2.022656      0.006180     -0.014820
    3319.6001     19.914635     69.984543      2.025434      0.007161     -0.014834
    3319.7001     20.093288     70.001831      2.028159      0.008226     -0.014839
    3319.8001     20.213688     70.012497      2.030208      0.009179     -0.014827
    3319.9001     20.320259   -999.250000   -999.250000   -999.250000   -999.250000
    3320.0001     20.399773   -999.250000   -999.250000   -999.250000   -999.250000
    3320.1001     20.421280   -999.250000   -999.250000   -999.250000   -999.250000
    3320.2001     20.416424   -999.250000   -999.250000   -999.250000   -999.250000
    3320.3001     20.396286   -999.250000   -999.250000   -999.250000   -999.250000
    3320.4001     20.341553   -999.250000   -999.250000   -999.250000   -999.250000
    3320.5001     20.149948   -999.250000   -999.250000   -999.250000   -999.250000
    3320.6001     19.833672   -999.250000   -999.250000   -999.250000   -999.250000
    3320.7001     19.385368   -999.250000   -999.250000   -999.250000   -999.250000
    3320.8001     18.910133   -999.250000   -999.250000   -999.250000   -999.250000
    3320.9001     18.495815   -999.250000   -999.250000   -999.250000   -999.250000
    3321.0001     18.236034   -999.250000   -999.250000   -999.250000   -999.250000
    3321.1001     18.179607   -999.250000   -999.250000   -999.250000   -999.250000
    3321.2001     18.328484   -999.250000   -999.250000   -999.250000   -999.250000
    3321.3001     18.759823   -999.250000   -999.250000   -999.250000   -999.250000
    3321.4001     19.257374   -999.250000   -999.250000   -999.250000   -999.250000
    3321.5001     19.614250   -999.250000   -999.250000   -999.250000   -999.250000
    3321.6001   -999.250000   -999.250000   -999.250000   -999.250000   -999.250000
