# LAS format data
~Version Information
VERS.     2.00: CWLS LOG ASCII STANDARD - VERSION 2.0
WRAP.       NO: ONE LINE PER DEPTH STEP
~Well Information
#MNEM   .UNITS    DATA                           DESCRIPTION
#----   ------    ----                           -----------
STRT    .M        29.6000                       :First Index Value
STOP    .M        3321.6001                     :Last Index Value
STEP    .M        0.1000                        :Frame Spacing
NULL    .         -999.2500                     :Absent Value
WELL    .         A08-01                        :Well Name   
FLD     .         FINDER_non_standard_22-02-2005  :Field Name  
CNTY    .                                       :County
STAT    .                                       :State
CTRY    .         Netherlands                   :Country
LOC     .         Offshore                              :Location
API     .                                       :API Number
DATE    .        01/02/2020                     :Date
COMP    .        Test Oil Company               :Company Name
SRVC    .        Best Logging Services          :Service Company
~Parameter Information
#MNEM   .UNITS    VALUE                          DESCRIPTION
#----   ------    -----                          -----------
TDD     .M        3348.00000                    :Total Depth (Driller)   
UBID    .         8267                          :Unique Borehole Id  
PDAT    .         Mean Sea Level                :Permanent Datum 
EPD     .M           0.00000                    :Elevation of Permanent Datum (PDAT) above Mean Sea Level
LMF     .                                       :Logging Measured From (Name of Logging Elevation Reference) 
APD     .M          35.00000                    :Elevation of Depth Reference (LMF) Above Permanent Datum
~Other Information
composite_curve_qc 
~Curve Information
#MNEM   .UNITS    API CODE                       CURVE DESCRIPTION
#----   ------    --------                       -----------------
DEPT    .M                                      :1     Index curve
GR      .GAPI                                   :2     A08-01
DT      .US/F                                   :3     A08-01
RHOB    .G/C3                                   :4     A08-01
DRHO    .G/C3                                   :5     A08-01
NPHI    .V/V                                    :6     A08-01
~Ascii Log Data
# ...
     413.6000     37.109215   -999.250000   -999.250000   -999.250000   -999.250000
     413.7000     37.868973   -999.250000   -999.250000   -999.250000   -999.250000
     413.8000     38.215034   -999.250000   -999.250000   -999.250000   -999.250000
     413.9000     38.302696   -999.250000   -999.250000   -999.250000   -999.250000
     414.0000     38.343330   -999.250000   -999.250000   -999.250000   -999.250000
     414.1000     38.388268   -999.250000   -999.250000   -999.250000   -999.250000
     414.2000     38.514206   -999.250000   -999.250000   -999.250000   -999.250000
     414.3000     38.876884   -999.250000   -999.250000   -999.250000   -999.250000
     414.4000     39.745598   -999.250000   -999.250000   -999.250000   -999.250000
     414.5000     41.059052   -999.250000   -999.250000   -999.250000   -999.250000
     414.6000     42.513519   -999.250000   -999.250000   -999.250000   -999.250000
     414.7000     43.771088   -999.250000   -999.250000   -999.250000   -999.250000
     414.8000     44.573769   -999.250000   -999.250000   -999.250000   -999.250000
     414.9000     44.823906   -999.250000   -999.250000   -999.250000   -999.250000
     415.0000     44.495956   -999.250000   -999.250000   -999.250000   -999.250000
     415.1000     43.831680   -999.250000   -999.250000   -999.250000   -999.250000
     415.2000     43.073624   -999.250000   -999.250000   -999.250000   -999.250000
     415.3000     42.332634   -999.250000   -999.250000   -999.250000   -999.250000
     415.4000     41.633102   -999.250000   -999.250000   -999.250000   -999.250000
     415.5000     40.967018   -999.250000   -999.250000   -999.250000   -999.250000
     415.6000     40.353294   -999.250000   -999.250000   -999.250000   -999.250000
     415.7000     39.829041   -999.250000   -999.250000   -999.250000   -999.250000
     415.8000     39.417984   -999.250000   -999.250000   -999.250000   -999.250000
     415.9000     39.000237   -999.250000   -999.250000   -999.250000   -999.250000
     416.0000     38.388832   -999.250000   -999.250000   -999.250000   -999.250000
     416.1000     37.466507   -999.250000   -999.250000   -999.250000   -999.250000
     416.2000     36.343811   -999.250000   -999.250000   -999.250000   -999.250000
     416.3000     35.303574   -999.250000   -999.250000   -999.250000   -999.250000
     416.4000     34.581017   -999.250000   -999.250000   -999.250000   -999.250000
     416.5000     34.143745   -999.250000   -999.250000   -999.250000   -999.250000
     416.6000     33.922195   -999.250000   -999.250000   -999.250000   -999.250000
     416.7000     34.120834   -999.250000   -999.250000   -999.250000   -999.250000
     416.8000     34.653702   -999.250000   -999.250000   -999.250000   -999.250000
     416.9000     35.233200   -999.250000   -999.250000   -999.250000   -999.250000
     417.0000     35.478607   -999.250000   -999.250000   -999.250000   -999.250000
     417.1000     35.296005   -999.250000   -999.250000   -999.250000   -999.250000
     417.2000     34.800507   -999.250000   -999.250000   -999.250000   -999.250000
     417.3000     34.108246   -999.250000   -999.250000   -999.250000   -999.250000
     417.4000     33.440132   -999.250000   -999.250000   -999.250000   -999.250000
     417.5000     32.925819   -999.250000   -999.250000   -999.250000   -999.250000
     417.6000     32.650040   -999.250000   -999.250000   -999.250000   -999.250000
     417.7000     32.562592   -999.250000   -999.250000   -999.250000   -999.250000
     417.8000     32.642052   -999.250000   -999.250000   -999.250000   -999.250000
     417.9000     32.977234   -999.250000   -999.250000   -999.250000   -999.250000
     418.0000     33.453827   -999.250000   -999.250000   -999.250000   -999.250000
     418.1000     33.972916   -999.250000   -999.250000   -999.250000   -999.250000
     418.2000     34.490868   -999.250000   -999.250000   -999.250000   -999.250000
     418.3000     35.232765   -999.250000   -999.250000   -999.250000   -999.250000
     418.4000     36.663231   -999.250000   -999.250000   -999.250000   -999.250000
     418.5000     38.802612   -999.250000   -999.250000   -999.250000   -999.250000
     418.6000     41.208351   -999.250000   -999.250000   -999.250000   -999.250000
     418.7000     43.271545   -999.250000   -999.250000   -999.250000   -999.250000
     418.8000     44.866058   -999.250000   -999.250000   -999.250000   -999.250000
     418.9000     46.165665   -999.250000   -999.250000   -999.250000   -999.250000
     419.0000     47.118065   -999.250000   -999.250000   -999.250000   -999.250000
     419.1000     47.839432   -999.250000   -999.250000   -999.250000   -999.250000
     419.2000     48.444168   -999.250000   -999.250000   -999.250000   -999.250000
     419.3000     48.907394   -999.250000   -999.250000   -999.250000   -999.250000
     419.4000     49.270401   -999.250000   -999.250000   -999.250000   -999.250000
     419.5000     49.532928    153.655518   -999.250000   -999.250000   -999.250000
     419.6000     49.408958    154.350006      1.883829      0.056830      0.726864
     419.7000     49.217506    155.007996      1.853240      0.069087      0.736252
     419.8000     49.061646    155.625610      1.825669      0.087985      0.752552
     419.9000     49.244141    156.163910      1.809373      0.101861      0.741531
     420.0000     49.510506    156.674652      1.799353      0.110799      0.704889
     420.1000     49.780640    157.151306      1.794418      0.115091      0.646533
     420.2000     50.085495    157.627930      1.786719      0.112735      0.602540
     420.3000     50.380730    158.101135      1.775160      0.108179      0.585280
     420.4000     50.645531    158.558167      1.759758      0.102664      0.598908
     420.5000     50.652206    159.010254      1.760457      0.103847      0.681532
     420.6000     50.587135    159.446564      1.774694      0.109782      0.783581
     420.7000     50.523445    159.850037      1.802740      0.120102      0.885617
     420.8000     50.730270    160.197418      1.836096      0.127040      0.888133
     420.9000     51.026466    160.481903      1.868602      0.132229      0.830833
     421.0000     51.314064    160.674622      1.896943      0.136632      0.724658
     421.1000     51.162651    160.733643      1.930434      0.155265      0.629948
     421.2000     50.643410    160.698822      1.963932      0.179075      0.563894
     421.3000     49.644394    160.554810      1.994332      0.203130      0.541169
     421.4000     48.215797    160.350220      2.008073      0.208528      0.572337
     421.5000     46.620087    160.157166      2.012611      0.202775      0.623321
     421.6000     44.907318    160.037689      2.012920      0.190286      0.672763
     421.7000     43.398857    160.108643      2.009896      0.179543      0.702178
     421.8000     42.362328    160.356628      2.003338      0.171098      0.716583
     421.9000     42.332680    160.901703      1.988993      0.163346      0.719143
     422.0000     43.340576    161.716278      1.968446      0.156566      0.708938
     422.1000     45.030754    162.724823      1.944077      0.150222      0.691444
     422.2000     47.275276    163.914520      1.917612      0.143951      0.672981
     422.3000     49.389923    165.101715      1.893407      0.138097      0.659573
     422.4000     51.140167    166.230560      1.872089      0.132900      0.649305
     422.5000     51.918205    167.114319      1.857474      0.130040      0.636909
     422.6000     52.081566    167.656586      1.850818      0.129651      0.623456
     422.7000     51.963997    167.886963      1.851920      0.130821      0.611024
     422.8000     51.759331    167.626678      1.867455      0.132009      0.605409
     422.9000     51.860344    166.971008      1.893758      0.131831      0.600102
     423.0000     52.660202    166.026489      1.926141      0.129604      0.590795
     423.1000     55.464180    164.835541      1.958143      0.123153      0.575377
