# LAS format data
~Version Information
VERS.     2.00: CWLS LOG ASCII STANDARD - VERSION 2.0
WRAP.       NO: ONE LINE PER DEPTH STEP
~Well Information
#MNEM   .UNITS    DATA                           DESCRIPTION
#----   ------    ----                           -----------
STRT    .M        29.6000                       :First Index Value
STOP    .M        3321.6001                     :Last Index Value
STEP    .M        0.1000                        :Frame Spacing
NULL    .         -999.2500                     :Absent Value
WELL    .         A08-01                        :Well Name   
FLD     .         FINDER_non_standard_22-02-2005  :Field Name  
CNTY    .                                       :County
STAT    .                                       :State
CTRY    .         Netherlands                   :Country
LOC     .         Offshore                              :Location
API     .                                       :API Number
DATE    .        01/02/2020                     :Date
COMP    .        Test Oil Company               :Company Name
SRVC    .        Best Logging Services          :Service Company
~Parameter Information
#MNEM   .UNITS    VALUE                          DESCRIPTION
#----   ------    -----                          -----------
TDD     .M        3348.00000                    :Total Depth (Driller)   
UBID    .         8267                          :Unique Borehole Id  
PDAT    .         Mean Sea Level                :Permanent Datum 
EPD     .M           0.00000                    :Elevation of Permanent Datum (PDAT) above Mean Sea Level
LMF     .                                       :Logging Measured From (Name of Logging Elevation Reference) 
APD     .M          35.00000                    :Elevation of Depth Reference (LMF) Above Permanent Datum
~Other Information
composite_curve_qc 
~Curve Information
#MNEM   .UNITS    API CODE                       CURVE DESCRIPTION
#----   ------    --------                       -----------------
DEPT    .M                                      :1     Index curve
GR      .GAPI                                   :2     A08-01
DT      .US/F                                   :3     A08-01
RHOB    .G/C3                                   :4     A08-01
DRHO    .G/C3                                   :5     A08-01
NPHI    .V/V                                    :6     A08-01
~Ascii Log Data
# ...
    1383.2000     73.989746    132.690033      2.141614      0.027033      0.624882
    1383.3000     73.838562    133.044891      2.144400      0.027953      0.605185
    1383.4000     73.648102    133.431549      2.146220      0.027983      0.591046
    1383.5000     73.224625    133.796814      2.147306      0.026521      0.591523
    1383.6000     72.484756    134.104401      2.147900      0.023700      0.603506
    1383.7000     71.623413    134.332428      2.147868      0.020156      0.620353
    1383.8000     71.126816    134.479462      2.147202      0.016876      0.646169
    1383.9000     71.406326    134.529449      2.146407      0.015126      0.688616
    1384.0000     72.600433    134.461304      2.146128      0.016030      0.754089
    1384.1000     74.415054    134.382660      2.146211      0.019370      0.834982
    1384.2000     76.214142    134.441254      2.145660      0.023282      0.901848
    1384.3000     77.459015    134.718536      2.143130      0.025571      0.915787
    1384.4000     77.981079    135.180603      2.138293      0.025406      0.867297
    1384.5000     78.004379    135.750183      2.132536      0.023768      0.782805
    1384.6000     77.810959    136.454041      2.128030      0.022271      0.694548
    1384.7000     77.670853    137.279083      2.126315      0.022008      0.626924
    1384.8000     77.725632    138.172577      2.127412      0.022900      0.586560
    1384.9000     77.979279    139.140137      2.130567      0.024147      0.567551
    1385.0000     78.346603    140.179047      2.134253      0.024891      0.555723
    1385.1000     78.664444    141.220856      2.137074      0.024580      0.540971
    1385.2000     78.752701    142.112091      2.138579      0.022945      0.528292
    1385.3000     78.497162    142.706604      2.138881      0.020474      0.522982
    1385.4000     77.839050    142.957062      2.138374      0.018247      0.527095
    1385.5000     76.718399    142.899933      2.137203      0.017389      0.539405
    1385.6000     75.464920    142.722961      2.136110      0.018212      0.555109
    1385.7000     74.575623    142.630493      2.136142      0.020366      0.570193
    1385.8000     74.430542    142.760895      2.138261      0.023793      0.582394
    1385.9000     74.894379    143.114594      2.141808      0.027549      0.589275
    1386.0000     75.557465    143.533386      2.145004      0.030467      0.589750
    1386.1000     76.202530    143.728058      2.145967      0.031484      0.585622
    1386.2000     76.711594    143.545410      2.144288      0.030754      0.582711
    1386.3000     77.068771    143.037109      2.140820      0.029162      0.585498
    1386.4000     77.141541    142.441559      2.137052      0.027682      0.592436
    1386.5000     76.855881    142.019806      2.134422      0.026899      0.598706
    1386.6000     76.193771    141.931305      2.133665      0.026861      0.600127
    1386.7000     75.395630    142.241272      2.134645      0.027403      0.595330
    1386.8000     74.836304    142.834442      2.135830      0.028065      0.584851
    1386.9000     74.855301    143.596954      2.135267      0.028345      0.567056
    1387.0000     75.324814    144.349823      2.131752      0.027758      0.540025
    1387.1000     75.831268    144.983093      2.126131      0.026356      0.509097
    1387.2000     75.951141    145.394043      2.120068      0.024387      0.485587
    1387.3000     75.611938    145.561066      2.115541      0.022523      0.478922
    1387.4000     75.075851    145.537781      2.113448      0.021252      0.488818
    1387.5000     74.721222    145.312866      2.114928      0.021087      0.515732
    1387.6000     74.764038    144.930023      2.118999      0.021730      0.554539
    1387.7000     75.140701    144.455292      2.123979      0.022724      0.600032
    1387.8000     75.698547    143.945221      2.127804      0.023713      0.649937
    1387.9000     76.001526    143.535156      2.129480      0.024538      0.692255
    1388.0000     75.905396    143.293457      2.129290      0.025249      0.717898
    1388.1000     75.235184    143.398468      2.127700      0.026302      0.696232
    1388.2000     74.562744    143.677063      2.126336      0.027821      0.650152
    1388.3000     74.142609    144.002014      2.125701      0.029655      0.598558
    1388.4000     74.210815    144.134644      2.125533      0.030972      0.584634
    1388.5000     74.364426    144.087219      2.124590      0.031037      0.592326
    1388.6000     74.437271    143.897095      2.122488      0.029679      0.609396
    1388.7000     74.556702    143.582458      2.118281      0.025255      0.590536
    1388.8000     74.818649    143.222870      2.113776      0.019990      0.553903
    1388.9000     75.255676    142.846130      2.109780      0.014880      0.509958
    1389.0000     75.582169    142.587311      2.107939      0.012500      0.501583
    1389.1000     75.639526    142.507294      2.107164      0.011937      0.515724
    1389.2000     75.313522    142.665619      2.107045      0.012982      0.548687
    1389.3000     74.680832    142.987152      2.107058      0.015376      0.589794
    1389.4000     74.056473    143.340363      2.106893      0.017723      0.625030
    1389.5000     73.588303    143.692352      2.106342      0.019320      0.646694
    1389.6000     73.217758    143.988586      2.106535      0.020214      0.637814
    1389.7000     72.924225    144.204590      2.107203      0.020951      0.616590
    1389.8000     72.736145    144.290253      2.108253      0.021917      0.592213
    1389.9000     73.139160    144.293243      2.108180      0.022742      0.579463
    1390.0000     73.916504    144.270386      2.107365      0.023518      0.573442
    1390.1000     74.982620    144.255432      2.106014      0.024372      0.571241
    1390.2000     75.539261    144.355560      2.104760      0.025168      0.575263
    1390.3000     75.603073    144.567871      2.103354      0.025686      0.584309
    1390.4000     74.854141    144.971558      2.101014      0.025129      0.600680
    1390.5000     73.923965    145.441406      2.097681      0.023742      0.607414
    1390.6000     73.088821    145.928986      2.093995      0.022058      0.603552
    1390.7000     73.039383    146.328094      2.091895      0.021232      0.580223
    1390.8000     73.579453    146.532104      2.091790      0.021105      0.561991
    1390.9000     74.449402    146.544006      2.093036      0.021299      0.554734
    1391.0000     75.155502    146.182434      2.094107      0.020652      0.575176
    1391.1000     75.407562    145.732727      2.094213      0.019489      0.604694
    1391.2000     75.216797    145.288635      2.093421      0.018078      0.636003
    1391.3000     74.339615    145.109802      2.091998      0.017544      0.646830
    1391.4000     73.306915    145.147827      2.090248      0.017612      0.640871
    1391.5000     72.297211    145.369812      2.088209      0.018097      0.621617
    1391.6000     71.463303    145.840637      2.084741      0.018580      0.597226
    1391.7000     70.741547    146.367706      2.080747      0.018857      0.581428
    1391.8000     70.153091    146.862854      2.076892      0.018921      0.579506
    1391.9000     69.952942    147.265015      2.075278      0.019375      0.597995
    1392.0000     69.917389    147.561127      2.075991      0.020720      0.619914
    1392.1000     69.903915    147.734863      2.079127      0.023233      0.635101
    1392.2000     69.839218    147.743835      2.085897      0.027231      0.635434
    1392.3000     69.827713    147.656281      2.093632      0.030975      0.627815
    1392.4000     69.959503    147.513367      2.099991      0.032855      0.617239
    1392.5000     70.155380    147.342163      2.102719      0.031115      0.603129
    1392.6000     70.174332    147.199890      2.102788      0.027389      0.588251
    1392.7000     69.786697    147.122040      2.100970      0.023181      0.577337
