# LAS format data
~Version Information
VERS.     2.00: CWLS LOG ASCII STANDARD - VERSION 2.0
WRAP.       NO: ONE LINE PER DEPTH STEP
~Well Information
#MNEM   .UNITS    DATA                           DESCRIPTION
#----   ------    ----                           -----------
STRT    .M        29.6000                       :First Index Value
STOP    .M        3321.6001                     :Last Index Value
STEP    .M        0.1000                        :Frame Spacing
NULL    .         -999.2500                     :Absent Value
WELL    .         A08-01                        :Well Name   
FLD     .         FINDER_non_standard_22-02-2005  :Field Name  
CNTY    .                                       :County
STAT    .                                       :State
CTRY    .         Netherlands                   :Country
LOC     .         Offshore                              :Location
API     .                                       :API Number
DATE    .        01/02/2020                     :Date
COMP    .        Test Oil Company               :Company Name
SRVC    .        Best Logging Services          :Service Company
~Parameter Information
#MNEM   .UNITS    VALUE                          DESCRIPTION
#----   ------    -----                          -----------
TDD     .M        3348.00000                    :Total Depth (Driller)   
UBID    .         8267                          :Unique Borehole Id  
PDAT    .         Mean Sea Level                :Permanent Datum 
EPD     .M           0.00000                    :Elevation of Permanent Datum (PDAT) above Mean Sea Level
LMF     .                                       :Logging Measured From (Name of Logging Elevation Reference) 
APD     .M          35.00000                    :Elevation of Depth Reference (LMF) Above Permanent Datum
~Other Information
composite_curve_qc 
~Curve Information
#MNEM   .UNITS    API CODE                       CURVE DESCRIPTION
#----   ------    --------                       -----------------
DEPT    .M                                      :1     Index curve
GR      .GAPI                                   :2     A08-01
DT      .US/F                                   :3     A08-01
RHOB    .G/C3                                   :4     A08-01
DRHO    .G/C3                                   :5     A08-01
NPHI    .V/V                                    :6     A08-01
~Ascii Log Data
# ...
    1959.2002     39.027481    138.151154      2.292853      0.008544      0.479262
    1959.3002     38.984261    136.017365      2.282279     -0.000923      0.495050
    1959.4002     39.314255    135.056213      2.252787     -0.002082      0.496118
    1959.5002     39.842636    135.137421      2.214239      0.004181      0.485915
    1959.6002     40.381844    136.892548      2.185179      0.015364      0.484457
    1959.7002     40.923485    139.395264      2.164841      0.023223      0.499598
    1959.8002     41.467239    142.244354      2.151712      0.026309      0.529599
    1959.9002     42.491135    144.321320      2.146969      0.023654      0.567510
    1960.0002     42.491135    144.321320      2.146969      0.023654      0.567510
    1960.1002     43.592613    145.596008      2.144266      0.020026      0.594378
    1960.2002     44.625557    146.103516      2.141898      0.016779      0.605341
    1960.3002     44.985046    146.346893      2.141077      0.016352      0.593121
    1960.4002     44.966835    146.749207      2.141311      0.017396      0.580175
    1960.5002     44.669876    147.400635      2.142451      0.019394      0.575210
    1960.6002     44.192757    147.895660      2.143869      0.021690      0.577091
    1960.7002     43.773102    147.983307      2.145012      0.023614      0.572869
    1960.8002     43.518051    147.494568      2.145752      0.024908      0.554509
    1960.9002     43.528587    146.362274      2.147514      0.025433      0.523783
    1961.0002     43.580925    145.019806      2.151504      0.025910      0.500858
    1961.1002     43.480759    143.686279      2.159789      0.026895      0.502970
    1961.2002     42.846878    142.777496      2.179114      0.028586      0.551267
    1961.3002     41.834648    142.173126      2.203746      0.029357      0.614156
    1961.4002     40.574196    141.698456      2.227790      0.027080      0.660329
    1961.5002     39.652122    141.235046      2.237257      0.020474      0.656148
    1961.6002     39.306747    140.737793      2.232702      0.012514      0.624742
    1961.7002     39.812126    140.231964      2.215411      0.007362      0.599108
    1961.8002     40.847237    139.885010      2.193135      0.007673      0.595358
    1961.9002     41.995941    139.740753      2.171882      0.011299      0.604853
    1962.0002     42.937134    139.803406      2.156497      0.015176      0.613753
    1962.1002     43.539680    139.722961      2.148259      0.017775      0.615149
    1962.2002     43.864418    139.419403      2.145177      0.019616      0.610526
    1962.3002     43.880737    139.090912      2.146963      0.021852      0.603135
    1962.4002     43.672897    139.065002      2.152003      0.024755      0.596277
    1962.5002     43.346771    139.421112      2.158460      0.027897      0.592770
    1962.6002     42.965752    139.865875      2.164994      0.030620      0.597819
    1962.7002     42.593964    139.470032      2.171349      0.033051      0.614822
    1962.8002     42.266319    137.484558      2.177876      0.035602      0.642308
    1962.9002     42.012810    133.368988      2.184779      0.038483      0.672232
    1963.0002     41.854530    128.282074      2.190896      0.040945      0.686260
    1963.1002     41.845230    123.970673      2.194258      0.041698      0.668054
    1963.2002     42.087227    122.212128      2.192666      0.039248      0.608091
    1963.3002     42.433037    123.355911      2.188178      0.034833      0.536216
    1963.4002     42.713806    126.836273      2.184200      0.030731      0.491663
    1963.5002     42.970909    132.026764      2.182588      0.028462      0.498384
    1963.6002     43.326813    137.057556      2.183332      0.028281      0.547062
    1963.7002     43.872528    140.175598      2.185145      0.029402      0.612467
    1963.8002     44.561974    140.779175      2.187285      0.031146      0.684834
    1963.9002     45.196739    139.649323      2.188497      0.032257      0.747717
    1964.0002     45.553322    138.125153      2.187156      0.031577      0.784200
    1964.1002     45.553185    136.952118      2.181699      0.028744      0.784006
    1964.2002     45.346954    136.562897      2.173384      0.025146      0.760911
    1964.3002     45.155083    136.957855      2.165621      0.023126      0.740942
    1964.4002     45.044006    138.006134      2.161321      0.024119      0.738509
    1964.5002     44.973495    139.246063      2.161325      0.027464      0.752784
    1964.6002     44.835808    140.348267      2.163993      0.030969      0.769416
    1964.7002     44.574387    141.330383      2.167189      0.032863      0.776541
    1964.8002     44.202141    142.413605      2.168350      0.032472      0.769131
    1964.9002     43.746223    143.764893      2.166158      0.030398      0.751395
    1965.0002     43.220184    145.184723      2.161077      0.027517      0.731001
    1965.1002     42.658302    146.354858      2.155556      0.024839      0.716096
    1965.2002     42.108749    147.173859      2.152020      0.022659      0.708651
    1965.3002     41.650406    147.798889      2.151362      0.020767      0.705184
    1965.4002     41.360954    148.495605      2.152623      0.018896      0.700812
    1965.5002     41.332825    149.291931      2.154787      0.017483      0.696125
    1965.6002     41.522598    150.006226      2.157275      0.017221      0.694565
    1965.7002     41.764999    150.494720      2.160048      0.018385      0.695408
    1965.8002     41.911484    150.717255      2.163173      0.020816      0.691011
    1965.9002     41.943420    150.641357      2.166004      0.023528      0.678091
    1966.0002     41.985634    150.219971      2.167214      0.025249      0.661080
    1966.1002     42.225716    149.320984      2.164505      0.024605      0.649593
    1966.2002     42.665474    148.238007      2.158392      0.022134      0.644400
    1966.3002     43.159813    147.356750      2.151235      0.019488      0.638926
    1966.4002     43.502533    146.958282      2.145875      0.018554      0.623956
    1966.5002     43.642105    146.852386      2.142875      0.019321      0.603150
    1966.6002     43.571960    146.655792      2.141176      0.020761      0.585931
    1966.7002     43.134033    145.793640      2.138865      0.021671      0.582639
    1966.8002     42.424583    144.277679      2.135116      0.021852      0.587654
    1966.9002     41.599480    142.447540      2.130462      0.021749      0.591079
    1967.0002     40.862755    141.003845      2.127107      0.022290      0.580121
    1967.1002     40.382004    140.114685      2.126039      0.023523      0.560614
    1967.2002     40.249786    139.736053      2.127357      0.025010      0.544149
    1967.3002     40.447342    139.944794      2.129928      0.025395      0.552876
    1967.4002     40.790558    140.611725      2.131720      0.024481      0.583536
    1967.5002     41.169518    141.656830      2.131150      0.022380      0.628938
    1967.6002     41.520012    142.485687      2.127234      0.019683      0.678550
    1967.7002     41.804977    143.017761      2.122369      0.017317      0.717997
    1967.8002     41.989601    143.386230      2.119092      0.016081      0.731388
    1967.9002     42.111198    144.130188      2.119992      0.016015      0.705470
    1968.0002     42.225945    145.255707      2.123723      0.016737      0.662642
    1968.1002     42.387512    146.795990      2.129296      0.018431      0.628350
    1968.2002     42.507080    148.167694      2.134434      0.021207      0.636026
    1968.3002     42.558647    149.206177      2.138812      0.024258      0.675751
    1968.4002     42.491562    149.736969      2.143121      0.026402      0.742957
    1968.5002     42.306061    149.849304      2.155196      0.028864      0.806093
    1968.6002     41.999420    149.536224      2.175860      0.031968      0.856114
    1968.7002     41.292671    147.865814      2.217361      0.036832      0.881078
