# LAS format data
~Version Information
VERS.     2.00: CWLS LOG ASCII STANDARD - VERSION 2.0
WRAP.       NO: ONE LINE PER DEPTH STEP
~Well Information
#MNEM   .UNITS    DATA                           DESCRIPTION
#----   ------    ----                           -----------
STRT    .M        29.6000                       :First Index Value
STOP    .M        3321.6001                     :Last Index Value
STEP    .M        0.1000                        :Frame Spacing
NULL    .         -999.2500                     :Absent Value
WELL    .         A08-01                        :Well Name   
FLD     .         FINDER_non_standard_22-02-2005  :Field Name  
CNTY    .                                       :County
STAT    .                                       :State
CTRY    .         Netherlands                   :Country
LOC     .         Offshore                              :Location
API     .                                       :API Number
DATE    .        01/02/2020                     :Date
COMP    .        Test Oil Company               :Company Name
SRVC    .        Best Logging Services          :Service Company
~Parameter Information
#MNEM   .UNITS    VALUE                          DESCRIPTION
#----   ------    -----                          -----------
TDD     .M        3348.00000                    :Total Depth (Driller)   
UBID    .         8267                          :Unique Borehole Id  
PDAT    .         Mean Sea Level                :Permanent Datum 
EPD     .M           0.00000                    :Elevation of Permanent Datum (PDAT) above Mean Sea Level
LMF     .                                       :Logging Measured From (Name of Logging Elevation Reference) 
APD     .M          35.00000                    :Elevation of Depth Reference (LMF) Above Permanent Datum
~Other Information
composite_curve_qc 
~Curve Information
#MNEM   .UNITS    API CODE                       CURVE DESCRIPTION
#----   ------    --------                       -----------------
DEPT    .M                                      :1     Index curve
GR      .GAPI                                   :2     A08-01
DT      .US/F                                   :3     A08-01
RHOB    .G/C3                                   :4     A08-01
DRHO    .G/C3                                   :5     A08-01
NPHI    .V/V                                    :6     A08-01
~Ascii Log Data
# ...
    2151.2002     40.672142    129.478027      2.270476     -0.004563      0.654862
    2151.3002     40.881599    125.458405      2.266476      0.009604      0.651606
    2151.4002     41.143517    120.724564      2.262903      0.025164      0.639565
    2151.5002     41.405113    115.945389      2.258448      0.036474      0.627423
    2151.6002     41.716682    112.385895      2.253860      0.041004      0.621236
    2151.7002     41.997871    110.654465      2.250073      0.041330      0.618555
    2151.8002     42.095055    111.051315      2.247450      0.039566      0.615441
    2151.9002     41.832184    112.838089      2.245314      0.034939      0.614301
    2152.0002     41.265785    114.876221      2.242920      0.028258      0.617635
    2152.1002     40.514320    116.479965      2.240328      0.021486      0.627531
    2152.2002     39.819214    117.544998      2.239503      0.018162      0.641459
    2152.3002     39.358238    118.234802      2.241999      0.019331      0.652517
    2152.4002     39.272369    118.505295      2.249570      0.024659      0.651224
    2152.5002     39.507751    118.424316      2.262020      0.031214      0.634064
    2152.6002     39.870369    118.474365      2.276504      0.035880      0.610088
    2152.7002     40.199883    119.361343      2.288239      0.036308      0.596163
    2152.8002     40.431374    120.959671      2.292892      0.032887      0.603269
    2152.9002     40.686806    122.636795      2.288682      0.027838      0.630655
    2153.0002     41.226837    123.926956      2.275179      0.023177      0.671279
    2153.1002     42.105415    125.078705      2.257215      0.020128      0.712789
    2153.2002     43.081467    126.320358      2.241303      0.018746      0.742853
    2153.3002     43.766731    127.227982      2.231337      0.018522      0.752848
    2153.4002     44.010010    127.605057      2.226660      0.018471      0.746405
    2153.5002     43.869560    127.600830      2.224868      0.018034      0.731559
    2153.6002     43.388145    127.500473      2.226696      0.017574      0.707390
    2153.7002     42.789070    127.459000      2.232943      0.017718      0.673330
    2153.8002     42.294449    127.523590      2.245432      0.018681      0.627484
    2153.9002     41.965668    127.888519      2.266416      0.019739      0.567225
    2154.0002     41.774330    128.590576      2.290373      0.019634      0.503461
    2154.1002     41.603806    129.469727      2.306340      0.017945      0.455377
    2154.2002     41.333679    130.330444      2.306670      0.016163      0.436140
    2154.3002     40.950218    130.994385      2.295043      0.016523      0.442586
    2154.4002     40.619499    131.374664      2.282804      0.020294      0.463013
    2154.5002     40.579224    131.364777      2.276264      0.026774      0.494296
    2154.6002     40.899376    130.962067      2.276833      0.033305      0.527568
    2154.7002     41.378098    130.185059      2.281817      0.037299      0.553540
    2154.8002     41.634094    129.086792      2.289384      0.038069      0.569157
    2154.9002     41.392036    127.852936      2.295588      0.036844      0.579051
    2155.0002     40.704178    126.648560      2.295608      0.035170      0.588603
    2155.1002     39.934372    125.622742      2.286182      0.033711      0.594088
    2155.2002     39.510910    124.789078      2.270713      0.032879      0.589571
    2155.3002     39.568634    123.915787      2.255683      0.032845      0.570639
    2155.4002     39.849144    122.622803      2.245328      0.033253      0.540637
    2155.5002     39.987328    120.909775      2.240099      0.033433      0.511153
    2155.6002     39.842125    119.328125      2.238301      0.032776      0.496037
    2155.7002     39.592255    118.775604      2.237980      0.031103      0.503906
    2155.8002     39.484550    119.551392      2.237776      0.029002      0.530694
    2155.9002     39.653732    121.482620      2.237976      0.027603      0.568601
    2156.0002     40.019569    123.705338      2.239502      0.027837      0.605873
    2156.1002     40.436348    125.358536      2.242465      0.029517      0.637013
    2156.2002     40.792496    125.516388      2.245787      0.031695      0.660142
    2156.3002     41.034477    124.512558      2.247807      0.033204      0.678890
    2156.4002     41.133568    123.099579      2.248180      0.033748      0.696020
    2156.5002     40.939194    122.079102      2.247834      0.033585      0.706864
    2156.6002     40.599960    121.968124      2.248678      0.033381      0.709223
    2156.7002     40.303658    122.926559      2.251406      0.033376      0.701990
    2156.8002     40.299744    125.563446      2.255370      0.033207      0.677594
    2156.9002     40.450493    128.736053      2.258656      0.033484      0.642744
    2157.0002     40.561699    131.528748      2.259895      0.034882      0.604346
    2157.1002     40.229057    133.280182      2.256794      0.038817      0.569065
    2157.2002     39.587524    134.441833      2.251531      0.043013      0.539499
    2157.3002     38.839561    135.285889      2.246031      0.045466      0.518189
    2157.4002     38.499245    135.454926      2.243187      0.042770      0.517923
    2157.5002     38.623711    135.052032      2.242881      0.037961      0.529513
    2157.6002     39.208710    134.105011      2.244876      0.033385      0.546265
    2157.7002     40.039406    132.540680      2.249029      0.030651      0.559702
    2157.8002     40.738716    130.817474      2.253405      0.028243      0.566344
    2157.9002     41.039841    129.260468      2.256639      0.024772      0.563230
    2158.0002     40.901611    128.693207      2.256632      0.020099      0.545799
    2158.1002     40.668907    128.993683      2.254632      0.015980      0.526409
    2158.2002     40.628578    130.438538      2.251022      0.014467      0.517143
    2158.3002     40.888176    132.611084      2.246602      0.016938      0.530256
    2158.4002     41.251289    134.828613      2.242032      0.021114      0.548848
    2158.5002     41.545151    136.546936      2.237461      0.025337      0.552068
    2158.6002     41.666428    136.295715      2.234186      0.029293      0.524386
    2158.7002     41.683449    134.387085      2.232497      0.033015      0.484404
    2158.8002     41.655205    129.981628      2.234041      0.036732      0.458073
    2158.9002     41.561897    125.279099      2.237477      0.038871      0.460104
    2159.0002     41.414207    121.149719      2.241314      0.039527      0.480652
    2159.1002     41.160255    118.840195      2.243147      0.038158      0.510232
    2159.2002     40.967903    118.407745      2.242935      0.036344      0.529899
    2159.3002     40.845657    119.309479      2.241632      0.034555      0.538763
    2159.4002     40.817215    121.552444      2.242207      0.033942      0.525526
    2159.5002     40.652985    123.381744      2.248677      0.035037      0.501842
    2159.6002     40.303017    124.573700      2.261500      0.037594      0.472034
    2159.7002     39.273949    124.003296      2.293133      0.041281      0.451797
    2159.8002     38.087021    122.335037      2.329582      0.041992      0.451540
    2159.9002     36.828659    119.797455      2.368689      0.039251      0.470779
    2160.0002     36.323166    116.804565      2.383929      0.029298      0.539348
    2160.1002     36.286079    114.246689      2.382827      0.019457      0.612216
    2160.2002     36.662918    112.450729      2.366637      0.012108      0.674630
    2160.3002     37.586182    112.841187      2.336664      0.015591      0.644859
    2160.4002     38.589218    114.595627      2.305589      0.021617      0.586538
    2160.5002     39.519844    117.679001      2.277415      0.027157      0.522131
    2160.6002     40.180527    121.466843      2.259217      0.025662      0.518378
    2160.7002     40.791710    125.122711      2.245886      0.021331      0.548015
