# LAS format data
~Version Information
VERS.     2.00: CWLS LOG ASCII STANDARD - VERSION 2.0
WRAP.       NO: ONE LINE PER DEPTH STEP
~Well Information
#MNEM   .UNITS    DATA                           DESCRIPTION
#----   ------    ----                           -----------
STRT    .M        29.6000                       :First Index Value
STOP    .M        3321.6001                     :Last Index Value
STEP    .M        0.1000                        :Frame Spacing
NULL    .         -999.2500                     :Absent Value
WELL    .         A08-01                        :Well Name   
FLD     .         FINDER_non_standard_22-02-2005  :Field Name  
CNTY    .                                       :County
STAT    .                                       :State
CTRY    .         Netherlands                   :Country
LOC     .         Offshore                              :Location
API     .                                       :API Number
DATE    .        01/02/2020                     :Date
COMP    .        Test Oil Company               :Company Name
SRVC    .        Best Logging Services          :Service Company
~Parameter Information
#MNEM   .UNITS    VALUE                          DESCRIPTION
#----   ------    -----                          -----------
TDD     .M        3348.00000                    :Total Depth (Driller)   
UBID    .         8267                          :Unique Borehole Id  
PDAT    .         Mean Sea Level                :Permanent Datum 
EPD     .M           0.00000                    :Elevation of Permanent Datum (PDAT) above Mean Sea Level
LMF     .                                       :Logging Measured From (Name of Logging Elevation Reference) 
APD     .M          35.00000                    :Elevation of Depth Reference (LMF) Above Permanent Datum
~Other Information
composite_curve_qc 
~Curve Information
#MNEM   .UNITS    API CODE                       CURVE DESCRIPTION
#----   ------    --------                       -----------------
DEPT    .M                                      :1     Index curve
GR      .GAPI                                   :2     A08-01
DT      .US/F                                   :3     A08-01
RHOB    .G/C3                                   :4     A08-01
DRHO    .G/C3                                   :5     A08-01
NPHI    .V/V                                    :6     A08-01
~Ascii Log Data
# ...
    2343.2004     47.317375    131.200226      2.363029      0.036372      0.554658
    2343.3004     46.707481    129.729431      2.395972      0.027091      0.535749
    2343.4004     45.890076    127.287308      2.418499      0.012481      0.522406
    2343.5004     45.043564    124.414032      2.420661     -0.002617      0.510399
    2343.6004     44.318993    121.870453      2.404027     -0.012292      0.499002
    2343.7004     43.864174    120.357697      2.379973     -0.012181      0.492182
    2343.8004     43.833549    120.224457      2.358265     -0.001434      0.495299
    2343.9004     44.152603    121.156525      2.345242      0.014480      0.508380
    2344.0004     44.632156    122.441849      2.341388      0.026403      0.530117
    2344.1004     45.182686    123.674698      2.344488      0.028079      0.564816
    2344.2004     45.592255    124.645767      2.347691      0.020592      0.609205
    2344.3004     45.617668    125.550079      2.344724      0.011573      0.653071
    2344.4004     45.099007    126.789108      2.334476      0.007790      0.686401
    2344.5004     44.314896    128.477875      2.322882      0.012432      0.704666
    2344.6004     43.792542    130.414093      2.318393      0.022987      0.709641
    2344.7004     43.908524    132.415680      2.324774      0.035506      0.702690
    2344.8004     44.626297    134.098877      2.337956      0.045478      0.692710
    2344.9004     45.616882    135.041931      2.349810      0.050647      0.688670
    2345.0004     46.558678    134.951080      2.353643      0.050086      0.693428
    2345.1004     47.135078    134.186035      2.347891      0.045763      0.700203
    2345.2004     47.167030    133.278687      2.334312      0.039899      0.699150
    2345.3004     46.723030    132.549377      2.316327      0.034271      0.687354
    2345.4004     46.254173    132.080017      2.301082      0.030552      0.669674
    2345.5004     46.247536    131.727264      2.296366      0.029747      0.649802
    2345.6004     46.870972    131.221680      2.308128      0.031187      0.623244
    2345.7004     47.765900    130.364441      2.330494      0.031968      0.590919
    2345.8004     48.406731    129.027405      2.353350      0.028443      0.558319
    2345.9004     48.412148    127.480927      2.367220      0.019581      0.534490
    2346.0004     47.823776    126.119446      2.370983      0.008879      0.521667
    2346.1004     46.811600    125.355850      2.367693      0.002457      0.519040
    2346.2004     45.809624    125.198196      2.364597      0.004385      0.522722
    2346.3004     45.102448    125.331070      2.365444      0.012445      0.531050
    2346.4004     44.970604    125.462814      2.370771      0.021704      0.549975
    2346.5004     45.260674    125.609558      2.375161      0.026972      0.585527
    2346.6004     45.712021    125.838745      2.375045      0.027861      0.636678
    2346.7004     46.057816    126.197922      2.366415      0.026343      0.697733
    2346.8004     46.281700    126.653656      2.354145      0.026130      0.751322
    2346.9004     46.569893    127.222031      2.342203      0.028195      0.790110
    2347.0004     47.633873    128.080750      2.337481      0.031412      0.793193
    2347.1004     49.274925    129.061157      2.338681      0.033786      0.764772
    2347.2004     51.180824    130.010254      2.343747      0.034644      0.711882
    2347.3004     52.623665    130.520813      2.350833      0.033437      0.633966
    2347.4004     53.537910    130.624359      2.356755      0.030985      0.557114
    2347.5004     53.906303    130.364899      2.360026      0.027474      0.494131
    2347.6004     53.099113    129.781860      2.355160      0.019503      0.459106
    2347.7004     51.830368    129.042877      2.346074      0.009953      0.439611
    2347.8004     50.469124    128.225891      2.334924      0.000690      0.431937
    2347.9004     49.577454    127.478287      2.323553     -0.000013      0.465687
    2348.0004     49.067299    126.877869      2.313275      0.004246      0.518397
    2348.1004     48.938675    126.495651      2.304904      0.012024      0.580206
    2348.2004     49.030945    126.041290      2.297735      0.017860      0.629338
    2348.3004     49.141434    125.475708      2.291694      0.021485      0.666527
    2348.4004     49.169746    124.776840      2.287439      0.022542      0.689861
    2348.5004     49.016388    124.061325      2.290652      0.024005      0.678612
    2348.6004     48.763206    123.445541      2.297753      0.025921      0.650096
    2348.7004     48.421120    123.029510      2.307273      0.028145      0.611499
    2348.8004     48.095840    123.109650      2.315631      0.029267      0.591101
    2348.9004     47.857101    123.507919      2.323321      0.029893      0.582594
    2349.0004     47.833565    124.222870      2.331898      0.030846      0.579664
    2349.1004     47.929359    124.674759      2.347543      0.031557      0.560797
    2349.2004     47.995827    124.763458      2.367104      0.030507      0.533456
    2349.3004     47.750481    124.125473      2.388159      0.022666      0.509501
    2349.4004     47.185455    123.198715      2.398266      0.008533      0.510590
    2349.5004     46.466705    122.295044      2.398182     -0.007361      0.530667
    2349.6004     45.763298    121.974396      2.383751     -0.016260      0.567300
    2349.7004     45.324409    122.258133      2.374030     -0.013235      0.593037
    2349.8004     45.132141    122.972900      2.373217     -0.001354      0.605970
    2349.9004     45.412415    124.078506      2.400200      0.014981      0.599360
    2350.0004     45.741829    124.770050      2.432477      0.021320      0.594472
    2350.1004     45.992477    124.939407      2.462666      0.016686      0.594643
    2350.2004     45.597618    123.741776      2.459189     -0.006965      0.587186
    2350.3004     45.054688    122.353180      2.439806     -0.026457      0.568427
    2350.4004     44.534401    121.066528      2.412176     -0.036656      0.539023
    2350.5004     44.946518    120.512466      2.403324     -0.018230      0.515296
    2350.6004     45.760017    120.383118      2.408954      0.006575      0.501603
    2350.7004     46.676949    120.553558      2.426981      0.028099      0.498938
    2350.8004     46.766914    120.840698      2.463723      0.036406      0.503852
    2350.9004     46.224091    120.855118      2.506346      0.039612      0.508924
    2351.0004     45.209030    120.418320      2.544689      0.041355      0.511636
    2351.1004     44.158737    119.871552      2.549689      0.037226      0.517032
    2351.2004     43.463936    119.638977      2.530805      0.028988      0.525141
    2351.3004     43.422096    120.011765      2.495236      0.018511      0.533181
    2351.4004     44.230545    121.053055      2.447548      0.009895      0.526956
    2351.5004     45.421341    122.465347      2.398572      0.004728      0.511941
    2351.6004     46.572586    124.026154      2.356940      0.003983      0.501821
    2351.7004     47.402489    125.443497      2.327653      0.008305      0.529111
    2351.8004     47.909950    126.543121      2.307843      0.015197      0.587392
    2351.9004     48.133598    127.198227      2.295096      0.022093      0.653968
    2352.0004     48.152863    127.480652      2.289030      0.026883      0.686389
    2352.1004     48.101357    127.563950      2.287542      0.029661      0.677849
    2352.2004     48.119087    127.545578      2.289231      0.031080      0.640210
    2352.3004     48.387558    127.501297      2.292915      0.031261      0.596242
    2352.4004     48.950790    127.487595      2.297367      0.030461      0.557441
    2352.5004     49.753471    127.580017      2.301639      0.029014      0.522194
    2352.6004     50.428757    127.878891      2.304762      0.027896      0.491006
    2352.7004     50.595535    128.361053      2.305898      0.027761      0.468516
