# LAS format data
~Version Information
VERS.     2.00: CWLS LOG ASCII STANDARD - VERSION 2.0
WRAP.       NO: ONE LINE PER DEPTH STEP
~Well Information
#MNEM   .UNITS    DATA                           DESCRIPTION
#----   ------    ----                           -----------
STRT    .M        29.6000                       :First Index Value
STOP    .M        3321.6001                     :Last Index Value
STEP    .M        0.1000                        :Frame Spacing
NULL    .         -999.2500                     :Absent Value
WELL    .         A08-01                        :Well Name   
FLD     .         FINDER_non_standard_22-02-2005  :Field Name  
CNTY    .                                       :County
STAT    .                                       :State
CTRY    .         Netherlands                   :Country
LOC     .         Offshore                              :Location
API     .                                       :API Number
DATE    .        01/02/2020                     :Date
COMP    .        Test Oil Company               :Company Name
SRVC    .        Best Logging Services          :Service Company
~Parameter Information
#MNEM   .UNITS    VALUE                          DESCRIPTION
#----   ------    -----                          -----------
TDD     .M        3348.00000                    :Total Depth (Driller)   
UBID    .         8267                          :Unique Borehole Id  
PDAT    .         Mean Sea Level                :Permanent Datum 
EPD     .M           0.00000                    :Elevation of Permanent Datum (PDAT) above Mean Sea Level
LMF     .                                       :Logging Measured From (Name of Logging Elevation Reference) 
APD     .M          35.00000                    :Elevation of Depth Reference (LMF) Above Permanent Datum
~Other Information
composite_curve_qc 
~Curve Information
#MNEM   .UNITS    API CODE                       CURVE DESCRIPTION
#----   ------    --------                       -----------------
DEPT    .M                                      :1     Index curve
GR      .GAPI                                   :2     A08-01
DT      .US/F                                   :3     A08-01
RHOB    .G/C3                                   :4     A08-01
DRHO    .G/C3                                   :5     A08-01
NPHI    .V/V                                    :6     A08-01
~Ascii Log Data
# ...
    2736.8004     13.584553     74.495743      2.427628      0.012943      0.181280
    2736.9004     13.713190     74.685059      2.419442      0.012999      0.183112
    2737.0004     14.043894     74.907913      2.405044      0.013725      0.186547
    2737.1004     14.454626     75.196884      2.389770      0.014764      0.189489
    2737.2004     14.856985     75.535172      2.376715      0.015791      0.191073
    2737.3004     15.174950     75.908936      2.371089      0.016104      0.189588
    2737.4004     15.425770     76.212799      2.372547      0.016178      0.187186
    2737.5004     15.619965     76.412979      2.379320      0.016347      0.185090
    2737.6004     15.654934     76.359375      2.393216      0.017970      0.186364
    2737.7004     15.615499     76.146790      2.407235      0.019731      0.188689
    2737.8004     15.541618     75.834198      2.418964      0.021110      0.191026
    2737.9004     15.506525     75.530807      2.420510      0.019068      0.185436
    2738.0004     15.480595     75.326721      2.418856      0.016194      0.176237
    2738.1004     15.449772     75.238205      2.416176      0.013209      0.164444
    2738.2004     15.242975     75.324280      2.419044      0.013276      0.160168
    2738.3004     14.946423     75.475830      2.424264      0.014511      0.160806
    2738.4004     14.569635     75.670593      2.430943      0.016293      0.165662
    2738.5004     14.312408     75.875061      2.432647      0.016185      0.169231
    2738.6004     14.183285     76.091675      2.431200      0.015099      0.170599
    2738.7004     14.205807     76.342392      2.426923      0.013315      0.169161
    2738.8004     14.298868     76.654724      2.422258      0.010723      0.169062
    2738.9004     14.402746     77.004669      2.417354      0.007122      0.169761
    2739.0004     14.487600     77.375031      2.412130      0.001961      0.170732
    2739.1004     14.616764     77.668182      2.403515     -0.004927      0.168661
    2739.2004     14.754780     77.884308      2.393179     -0.011830      0.165372
    2739.3004     14.850159     77.961533      2.382640     -0.016546      0.162577
    2739.4004     14.747534     77.895981      2.377056     -0.015962      0.163986
    2739.5004     14.495232     77.739594      2.374657     -0.012639      0.167884
    2739.6004     14.070566     77.483688      2.375015     -0.008529      0.173018
    2739.7004     13.589277     77.131027      2.375992     -0.005376      0.177411
    2739.8004     13.153316     76.712616      2.377088     -0.003094      0.180884
    2739.9004     12.973925     76.210876      2.378438     -0.001476      0.183179
    2740.0004     13.041630     75.639984      2.381046     -0.000228      0.183604
    2740.1004     13.261766     75.018860      2.384964      0.000751      0.182329
    2740.2004     13.518524     74.395844      2.390840      0.001104      0.178362
    2740.3004     13.651716     73.802322      2.397782      0.001507      0.174267
    2740.4004     13.640442     73.249634      2.405233      0.002200      0.170630
    2740.5004     13.413780     72.776443      2.412518      0.003769      0.166970
    2740.6004     13.188845     72.348434      2.419517      0.005628      0.161926
    2740.7004     13.068888     71.958450      2.425985      0.007406      0.155897
    2740.8004     13.313623     71.580368      2.431394      0.008427      0.152289
    2740.9004     13.710270     71.196060      2.435875      0.008739      0.151326
    2741.0004     14.115768     70.806839      2.439587      0.008497      0.152186
    2741.1004     14.445112     70.375748      2.443672      0.007905      0.151601
    2741.2004     14.713234     69.899826      2.449121      0.007693      0.149127
    2741.3004     14.912659     69.388412      2.456582      0.008377      0.145039
    2741.4004     14.886772     68.823242      2.468575      0.011110      0.138969
    2741.5004     14.708183     68.240448      2.483202      0.014962      0.131158
    2741.6004     14.470188     67.654007      2.499169      0.019104      0.121542
    2741.7004     14.347057     67.114304      2.514793      0.022329      0.111481
    2741.8004     14.370411     66.664917      2.528972      0.024487      0.103057
    2741.9004     14.513741     66.329178      2.541744      0.025858      0.097588
    2742.0004     14.723848     66.165405      2.552324      0.026595      0.096421
    2742.1004     14.937458     66.167343      2.560925      0.027136      0.097734
    2742.2004     15.121040     66.344772      2.566907      0.027813      0.099627
    2742.3004     15.240456     66.697800      2.566705      0.028769      0.101510
    2742.4004     15.321930     67.178802      2.559784      0.029846      0.103797
    2742.5004     15.424536     67.758759      2.546154      0.030725      0.107805
    2742.6004     15.616159     68.389359      2.526612      0.031137      0.115114
    2742.7004     15.874166     69.041595      2.504611      0.031107      0.125088
    2742.8004     16.116947     69.714005      2.484526      0.030794      0.135463
    2742.9004     16.310616     70.422562      2.469834      0.030483      0.143420
    2743.0004     16.514797     71.189377      2.460584      0.030034      0.148228
    2743.1004     16.827988     72.037720      2.455563      0.028380      0.151027
    2743.2004     17.212147     72.953629      2.452381      0.024175      0.154025
    2743.3004     17.468212     73.905380      2.448807      0.017873      0.158731
    2743.4004     17.318192     74.848389      2.444100      0.012023      0.164774
    2743.5004     16.752983     75.755630      2.437312      0.009561      0.170643
    2743.6004     16.039337     76.629227      2.426949      0.011155      0.174806
    2743.7004     15.469900     77.460861      2.411034      0.014810      0.176713
    2743.8004     15.152975     78.287903      2.390878      0.017540      0.177609
    2743.9004     14.995953     79.145584      2.370501      0.017690      0.179635
    2744.0004     14.900482     80.014694      2.353824      0.016018      0.184196
    2744.1004     14.788843     80.867783      2.341722      0.014469      0.191139
    2744.2004     14.692860     81.648926      2.332511      0.014243      0.199989
    2744.3004     14.715946     82.307129      2.324712      0.014473      0.212375
    2744.4004     14.854475     82.834305      2.316719      0.014163      0.228088
    2744.5004     15.002977     83.241028      2.308466      0.012953      0.244136
    2744.6004     15.097570     83.537399      2.300802      0.011144      0.257100
    2744.7004     15.124304     83.760422      2.294685      0.009565      0.264998
    2744.8004     15.122507     83.935364      2.290230      0.008690      0.268796
    2744.9004     15.115993     84.070145      2.286306      0.007972      0.270904
    2745.0004     15.123720     84.184097      2.281816      0.006908      0.274153
    2745.1004     15.155205     84.297577      2.276963      0.005757      0.278569
    2745.2004     15.227470     84.427155      2.273468      0.005601      0.280537
    2745.3004     15.344131     84.577393      2.272335      0.006952      0.277923
    2745.4004     15.510113     84.742935      2.272950      0.009359      0.271645
    2745.5004     15.720501     84.899841      2.273500      0.011568      0.264449
    2745.6004     15.922844     85.018494      2.272033      0.012235      0.259201
    2745.7004     16.034565     85.072586      2.267236      0.010257      0.257025
    2745.8004     15.986973     85.052490      2.259378      0.005257      0.257413
    2745.9004     15.810724     84.982086      2.251809     -0.000368      0.258818
    2746.0004     15.572912     84.884567      2.249172     -0.002571      0.260512
    2746.1004     15.341755     84.786972      2.252896      0.001214      0.262802
    2746.2004     15.133776     84.697540      2.259431      0.008697      0.265549
    2746.3004     14.917261     84.595016      2.262982      0.014447      0.267423
