# LAS format data
~Version Information
VERS.     2.00: CWLS LOG ASCII STANDARD - VERSION 2.0
WRAP.       NO: ONE LINE PER DEPTH STEP
~Well Information
#MNEM   .UNITS    DATA                           DESCRIPTION
#----   ------    ----                           -----------
STRT    .M        29.6000                       :First Index Value
STOP    .M        3321.6001                     :Last Index Value
STEP    .M        0.1000                        :Frame Spacing
NULL    .         -999.2500                     :Absent Value
WELL    .         A08-01                        :Well Name   
FLD     .         FINDER_non_standard_22-02-2005  :Field Name  
CNTY    .                                       :County
STAT    .                                       :State
CTRY    .         Netherlands                   :Country
LOC     .         Offshore                              :Location
API     .                                       :API Number
DATE    .        01/02/2020                     :Date
COMP    .        Test Oil Company               :Company Name
SRVC    .        Best Logging Services          :Service Company
~Parameter Information
#MNEM   .UNITS    VALUE                          DESCRIPTION
#----   ------    -----                          -----------
TDD     .M        3348.00000                    :Total Depth (Driller)   
UBID    .         8267                          :Unique Borehole Id  
PDAT    .         Mean Sea Level                :Permanent Datum 
EPD     .M           0.00000                    :Elevation of Permanent Datum (PDAT) above Mean Sea Level
LMF     .                                       :Logging Measured From (Name of Logging Elevation Reference) 
APD     .M          35.00000                    :Elevation of Depth Reference (LMF) Above Permanent Datum
~Other Information
composite_curve_qc 
~Curve Information
#MNEM   .UNITS    API CODE                       CURVE DESCRIPTION
#----   ------    --------                       -----------------
DEPT    .M                                      :1     Index curve
GR      .GAPI                                   :2     A08-01
DT      .US/F                                   :3     A08-01
RHOB    .G/C3                                   :4     A08-01
DRHO    .G/C3                                   :5     A08-01
NPHI    .V/V                                    :6     A08-01
~Ascii Log Data
# ...
    2554.4004     36.082458     98.269119      2.459697      0.020915      0.176943
    2554.5004     35.217239     98.563034      2.461552      0.021278      0.185254
    2554.6004     34.336464     98.972336      2.465244      0.022168      0.194597
    2554.7004     33.676941     99.463882      2.469851      0.022519      0.202639
    2554.8004     33.399590     99.978409      2.473941      0.021746      0.208162
    2554.9004     33.591660    100.493774      2.476314      0.020327      0.211736
    2555.0004     34.355400    100.989243      2.475635      0.018944      0.213614
    2555.1004     35.548653    101.445847      2.471785      0.017986      0.214014
    2555.2004     36.908722    101.845657      2.465168      0.017136      0.212290
    2555.3004     38.065666    102.154327      2.456388      0.016079      0.207986
    2555.4004     38.613800    102.343994      2.447318      0.014848      0.202262
    2555.5004     38.221680    102.371017      2.440069      0.013828      0.197134
    2555.6004     36.934502    102.212433      2.435870      0.013220      0.194053
    2555.7004     35.250198    101.904846      2.434599      0.013003      0.192923
    2555.8004     33.706657    101.506302      2.436316      0.013260      0.192426
    2555.9004     32.681824    101.140533      2.441635      0.014396      0.191078
    2556.0004     32.249825    100.926392      2.450813      0.016674      0.188227
    2556.1004     32.423965    100.974335      2.464410      0.020235      0.184332
    2556.2004     32.936386    101.275192      2.480544      0.024423      0.181017
    2556.3004     33.538933    101.719208      2.496162      0.028117      0.179607
    2556.4004     34.228889    102.183853      2.506649      0.029391      0.181079
    2556.5004     34.982574    102.548096      2.509419      0.027017      0.184422
    2556.6004     35.734184    102.764084      2.504914      0.021868      0.188327
    2556.7004     36.296616    102.780334      2.493498      0.017172      0.192372
    2556.8004     36.627174    102.662430      2.480260      0.016541      0.196455
    2556.9004     36.693741    102.466675      2.468825      0.020894      0.200391
    2557.0004     36.217331    102.171829      2.460989      0.028188      0.203077
    2557.1004     35.392509    101.769501      2.455812      0.033509      0.204241
    2557.2004     34.424675    101.257523      2.453281      0.033917      0.203380
    2557.3004     33.358459    100.635483      2.457161      0.029062      0.197950
    2557.4004     32.298218     99.995300      2.464993      0.023158      0.189784
    2557.5004     31.362656     99.432068      2.473910      0.018926      0.181208
    2557.6004     30.718323     99.066788      2.480441      0.015056      0.176134
    2557.7004     30.386932     98.877335      2.484859      0.011371      0.174682
    2557.8004     30.439690     98.849335      2.487544      0.008666      0.176533
    2557.9004     31.154827     98.883560      2.484155      0.010476      0.180939
    2558.0004     32.198700     98.882309      2.476542      0.015160      0.185764
    2558.1004     33.280846     98.781479      2.466570      0.020926      0.189556
    2558.2004     33.881523     98.553253      2.459225      0.024477      0.191724
    2558.3004     34.070076     98.257965      2.455283      0.026030      0.192656
    2558.4004     33.870407     97.907516      2.455705      0.025902      0.192095
    2558.5004     33.663338     97.548401      2.457371      0.023854      0.188449
    2558.6004     33.547295     97.189560      2.458505      0.020313      0.183059
    2558.7004     33.577400     96.788315      2.457242      0.014179      0.176830
    2558.8004     33.517204     96.266312      2.457660      0.008564      0.171548
    2558.9004     33.276169     95.636871      2.460081      0.004443      0.167150
    2559.0004     32.513809     94.764130      2.465307      0.003737      0.163160
    2559.1004     31.425259     93.744415      2.469997      0.004972      0.159576
    2559.2002     30.156647     92.631927      2.473704      0.007174      0.156446
    2559.3002     28.949253     91.575653      2.475562      0.009536      0.155409
    2559.4002     28.017708     90.770523      2.477444      0.011885      0.156373
    2559.5002     27.318008     90.174820      2.479698      0.014232      0.158803
    2559.6002     27.076675     89.980728      2.481597      0.015832      0.162160
    2559.7002     26.912949     89.949783      2.482526      0.016618      0.164686
    2559.8002     26.720024     90.000488      2.482588      0.016744      0.166196
    2559.9002     26.151802     89.970596      2.482320      0.015949      0.163683
    2560.0002     25.491081     89.906418      2.481741      0.013906      0.159532
    2560.1002     24.781166     89.822037      2.480820      0.010501      0.154217
    2560.2002     24.852135     89.978485      2.474862      0.001088      0.150113
    2560.3002     25.341743     90.409821      2.466315     -0.010046      0.147334
    2560.4002     26.169312     91.150711      2.455854     -0.021482      0.146107
    2560.5002     27.170582     92.210007      2.449675     -0.023342      0.146854
    2560.6002     28.225594     93.346252      2.446681     -0.019853      0.148240
    2560.7002     29.289421     94.462845      2.447155     -0.011703      0.149884
    2560.8002     30.506287     95.259995      2.447968     -0.003840      0.152464
    2560.9002     31.749104     95.849548      2.447769      0.002352      0.155430
    2561.0002     32.865326     96.180649      2.445727      0.005489      0.158432
    2561.1002     33.534439     96.321335      2.443442      0.006385      0.161218
    2561.2002     33.872780     96.362350      2.442366      0.007343      0.164054
    2561.3002     33.879265     96.310333      2.444032      0.010141      0.167156
    2561.4002     33.540749     96.108261      2.450171      0.015762      0.169814
    2561.5002     32.990852     95.750687      2.458347      0.022237      0.171621
    2561.6002     32.287575     95.167725      2.466007      0.027221      0.171897
    2561.7002     31.551727     94.370560      2.471124      0.028797      0.170685
    2561.8002     30.848717     93.476807      2.474617      0.028163      0.168842
    2561.9002     30.159393     92.542999      2.478299      0.026855      0.167139
    2562.0002     29.314148     91.720062      2.482970      0.026163      0.165849
    2562.1002     28.224628     91.063400      2.487894      0.026117      0.164279
    2562.2002     26.699493     90.646729      2.491410      0.026270      0.160570
    2562.3002     25.069107     90.471054      2.492149      0.025997      0.153937
    2562.4002     23.754993     90.484421      2.489957      0.024858      0.146343
    2562.5002     23.391567     90.703415      2.483840      0.021881      0.142232
    2562.6002     23.887516     91.077728      2.475085      0.017419      0.143752
    2562.7002     24.997303     91.547379      2.465925      0.012741      0.149701
    2562.8002     26.821678     92.095612      2.459447      0.010042      0.157230
    2562.9002     28.887539     92.639633      2.457029      0.010076      0.162284
    2563.0002     30.701221     93.101089      2.458558      0.012367      0.163343
    2563.1002     31.639248     93.323730      2.464299      0.016090      0.160730
    2563.2002     31.893410     93.253708      2.471129      0.019278      0.157680
    2563.3002     31.815121     92.899963      2.476509      0.020683      0.156536
    2563.4002     31.284157     92.210022      2.478993      0.019452      0.157963
    2563.5002     30.376484     91.309097      2.479590      0.016868      0.159732
    2563.6002     29.146259     90.309006      2.479897      0.014494      0.159063
    2563.7002     27.593388     89.290604      2.480317      0.013074      0.154076
    2563.8002     26.016476     88.306763      2.480736      0.012367      0.146768
    2563.9002     24.813999     87.361130      2.480752      0.011688      0.140808
