# LAS format data
~Version Information
VERS.     2.00: CWLS LOG ASCII STANDARD - VERSION 2.0
WRAP.       NO: ONE LINE PER DEPTH STEP
~Well Information
#MNEM   .UNITS    DATA                           DESCRIPTION
#----   ------    ----                           -----------
STRT    .M        29.6000                       :First Index Value
STOP    .M        3321.6001                     :Last Index Value
STEP    .M        0.1000                        :Frame Spacing
NULL    .         -999.2500                     :Absent Value
WELL    .         A08-01                        :Well Name   
FLD     .         FINDER_non_standard_22-02-2005  :Field Name  
CNTY    .                                       :County
STAT    .                                       :State
CTRY    .         Netherlands                   :Country
LOC     .         Offshore                              :Location
API     .                                       :API Number
DATE    .        01/02/2020                     :Date
COMP    .        Test Oil Company               :Company Name
SRVC    .        Best Logging Services          :Service Company
~Parameter Information
#MNEM   .UNITS    VALUE                          DESCRIPTION
#----   ------    -----                          -----------
TDD     .M        3348.00000                    :Total Depth (Driller)   
UBID    .         8267                          :Unique Borehole Id  
PDAT    .         Mean Sea Level                :Permanent Datum 
EPD     .M           0.00000                    :Elevation of Permanent Datum (PDAT) above Mean Sea Level
LMF     .                                       :Logging Measured From (Name of Logging Elevation Reference) 
APD     .M          35.00000                    :Elevation of Depth Reference (LMF) Above Permanent Datum
~Other Information
composite_curve_qc 
~Curve Information
#MNEM   .UNITS    API CODE                       CURVE DESCRIPTION
#----   ------    --------                       -----------------
DEPT    .M                                      :1     Index curve
GR      .GAPI                                   :2     A08-01
DT      .US/F                                   :3     A08-01
RHOB    .G/C3                                   :4     A08-01
DRHO    .G/C3                                   :5     A08-01
NPHI    .V/V                                    :6     A08-01
~Ascii Log Data
# ...
     797.6000     79.261627    150.594604      2.024681      0.129525      0.630955
     797.7000     78.614441    150.368256      2.027241      0.126920      0.631428
     797.8000     77.951675    150.162018      2.027205      0.121273      0.626473
     797.9000     77.349899    149.990234      2.025782      0.116731      0.617178
     798.0000     77.420654    149.893219      2.025746      0.120884      0.605765
     798.1000     77.882858    149.860413      2.026267      0.127472      0.598285
     798.2000     78.506607    149.886414      2.026038      0.132120      0.597583
     798.3000     78.854919    149.989960      2.015224      0.124986      0.610361
     798.4000     78.943558    150.129578      1.997560      0.113067      0.629621
     798.5000     78.793259    150.295471      1.974470      0.100114      0.652945
     798.6000     78.300339    150.455444      1.957545      0.094113      0.672986
     798.7000     77.726227    150.585602      1.948778      0.091739      0.685487
     798.8000     77.182495    150.671875      1.950172      0.090873      0.686706
     798.9000     77.237427    150.676910      1.962870      0.090562      0.675458
     799.0000     77.687210    150.619659      1.977661      0.090960      0.661708
     799.1000     78.518692    150.482819      1.989691      0.092760      0.650691
     799.2000     79.190582    150.270752      1.997475      0.094968      0.639217
     799.3000     79.652481    150.009857      2.004358      0.096507      0.627126
     799.4000     79.773041    149.700012      2.012903      0.095800      0.615480
     799.5000     79.685959    149.380402      2.021513      0.096235      0.618472
     799.6000     79.491135    149.056885      2.029488      0.099004      0.632744
     799.7000     79.182510    148.752167      2.034884      0.107196      0.660014
     799.8000     78.878036    148.483459      2.039273      0.116620      0.686079
     799.9000     78.604507    148.234741      2.043281      0.124772      0.705488
     800.0000     78.450195    148.025940      2.046316      0.124915      0.699615
     800.1000     78.264023    147.846893      2.045321      0.119965      0.676800
     800.2000     78.002762    147.681458      2.040853      0.113004      0.647010
     800.3000     77.543533    147.540710      2.031731      0.110401      0.632780
     800.4000     77.100220    147.413452      2.021775      0.110899      0.640790
     800.5000     76.787262    147.298370      2.012241      0.113358      0.667210
     800.6000     77.302917    147.212860      2.005656      0.116400      0.711962
     800.7000     78.315186    147.144714      1.997897      0.119162      0.752150
     800.8000     79.651459    147.089691      1.988016      0.121267      0.782058
     800.9000     81.024445    147.039856      1.969064      0.116456      0.776182
     801.0000     82.124191    146.975739      1.948156      0.107549      0.758337
     801.1000     82.866669    146.893036      1.927787      0.095784      0.735634
     801.2000     82.336456    146.757080      1.924075      0.090948      0.712970
     801.3000     81.336090    146.586487      1.930417      0.091776      0.694213
     801.4000     80.212296    146.391602      1.943782      0.097234      0.681456
     801.5000     79.176025    146.174927      1.962602      0.103173      0.683201
     801.6000     78.268097    145.960754      1.982070      0.107044      0.686385
     801.7000     77.535797    145.766418      2.000023      0.107781      0.682158
     801.8000     77.221893    145.608978      2.019519      0.105504      0.655657
     801.9000     77.270111    145.486328      2.041556      0.101985      0.621047
     802.0000     77.685562    145.404663      2.066323      0.098069      0.591206
     802.1000     78.512115    145.367950      2.092865      0.093352      0.576837
     802.2000     79.432236    145.367706      2.117402      0.088711      0.572951
     802.3000     80.169083    145.408356      2.135958      0.085146      0.574298
     802.4000     80.416931    145.497681      2.139635      0.084121      0.576790
     802.5000     80.254532    145.624603      2.131582      0.085774      0.576742
     802.6000     79.788452    145.792267      2.115355      0.090755      0.571627
     802.7000     79.285568    145.982666      2.094324      0.099019      0.565803
     802.8000     78.933624    146.162933      2.072950      0.108068      0.565844
     802.9000     78.819168    146.297607      2.054243      0.114968      0.579491
     803.0000     78.838730    146.343994      2.039175      0.117985      0.606169
     803.1000     78.845688    146.292175      2.027152      0.118844      0.637616
     803.2000     78.734375    146.116821      2.019680      0.120494      0.662704
     803.3000     78.513443    145.843536      2.019116      0.123486      0.674201
     803.4000     78.237717    145.522003      2.025140      0.125168      0.674376
     803.5000     77.948105    145.205627      2.036760      0.120216      0.668483
     803.6000     77.705124    144.960205      2.050249      0.108480      0.664242
     803.7000     77.577805    144.824921      2.063055      0.095541      0.663971
     803.8000     77.670700    144.864899      2.074496      0.090330      0.663067
     803.9000     77.896027    145.082275      2.084044      0.094988      0.655651
     804.0000     78.115799    145.436951      2.089836      0.105007      0.640107
     804.1000     78.307587    145.908478      2.087084      0.114604      0.620641
     804.2000     78.529602    146.437775      2.076051      0.120870      0.604874
     804.3000     78.847672    146.959534      2.060194      0.124987      0.599566
     804.4000     79.252960    147.416168      2.042422      0.128917      0.608170
     804.5000     79.661697    147.783081      2.026754      0.132505      0.623475
     804.6000     79.964310    148.056305      2.016794      0.132284      0.634567
     804.7000     80.081818    148.226349      2.015124      0.124256      0.636313
     804.8000     80.020142    148.329102      2.018582      0.110950      0.630123
     804.9000     79.790710    148.405243      2.022051      0.100446      0.620122
     805.0000     79.351654    148.486969      2.024125      0.099879      0.606772
     805.1000     78.826431    148.607452      2.025995      0.108828      0.593148
     805.2000     78.435196    148.783081      2.030916      0.119211      0.584776
     805.3000     78.274063    149.021637      2.040827      0.124220      0.586072
     805.4000     78.250763    149.298523      2.053715      0.121678      0.593831
     805.5000     78.176834    149.568420      2.063640      0.115404      0.599062
     805.6000     77.989517    149.783691      2.064538      0.109370      0.596923
     805.7000     77.754929    149.900513      2.055279      0.106551      0.591368
     805.8000     77.607376    149.876923      2.038970      0.107624      0.593453
     805.9000     77.624756    149.690125      2.019442      0.112771      0.609681
     806.0000     77.813400    149.370697      2.001719      0.120132      0.634488
     806.1000     78.156433    148.936523      1.989115      0.127374      0.653921
     806.2000     78.573090    148.433655      1.984135      0.132412      0.656224
     806.3000     78.937073    147.936096      1.986799      0.134321      0.641468
     806.4000     79.172150    147.496460      1.997665      0.133041      0.619033
     806.5000     79.319153    147.162537      2.015893      0.129759      0.602396
     806.6000     79.468369    146.949799      2.038230      0.126150      0.601939
     806.7000     79.647049    146.889404      2.060142      0.123152      0.623759
     806.8000     79.789948    146.970886      2.076490      0.120758      0.659508
     806.9000     79.844788    147.159607      2.084792      0.118418      0.693261
     807.0000     79.823227    147.458160      2.082157      0.116024      0.706244
     807.1000     79.810104    147.832062      2.072234      0.114245      0.696436
