# LAS format data
~Version Information
VERS.     2.00: CWLS LOG ASCII STANDARD - VERSION 2.0
WRAP.       NO: ONE LINE PER DEPTH STEP
~Well Information
#MNEM   .UNITS    DATA                           DESCRIPTION
#----   ------    ----                           -----------
STRT    .M        29.6000                       :First Index Value
STOP    .M        3321.6001                     :Last Index Value
STEP    .M        0.1000                        :Frame Spacing
NULL    .         -999.2500                     :Absent Value
WELL    .         A08-01                        :Well Name   
FLD     .         FINDER_non_standard_22-02-2005  :Field Name  
CNTY    .                                       :County
STAT    .                                       :State
CTRY    .         Netherlands                   :Country
LOC     .         Offshore                              :Location
API     .                                       :API Number
DATE    .        01/02/2020                     :Date
COMP    .        Test Oil Company               :Company Name
SRVC    .        Best Logging Services          :Service Company
~Parameter Information
#MNEM   .UNITS    VALUE                          DESCRIPTION
#----   ------    -----                          -----------
TDD     .M        3348.00000                    :Total Depth (Driller)   
UBID    .         8267                          :Unique Borehole Id  
PDAT    .         Mean Sea Level                :Permanent Datum 
EPD     .M           0.00000                    :Elevation of Permanent Datum (PDAT) above Mean Sea Level
LMF     .                                       :Logging Measured From (Name of Logging Elevation Reference) 
APD     .M          35.00000                    :Elevation of Depth Reference (LMF) Above Permanent Datum
~Other Information
composite_curve_qc 
~Curve Information
#MNEM   .UNITS    API CODE                       CURVE DESCRIPTION
#----   ------    --------                       -----------------
DEPT    .M                                      :1     Index curve
GR      .GAPI                                   :2     A08-01
DT      .US/F                                   :3     A08-01
RHOB    .G/C3                                   :4     A08-01
DRHO    .G/C3                                   :5     A08-01
NPHI    .V/V                                    :6     A08-01
~Ascii Log Data
# ...
    2928.8004     13.778908     68.782501      2.434213      0.014148      0.143031
    2928.9004     13.549599     68.862045      2.434176      0.014947      0.140890
    2929.0004     13.433735     68.766541      2.434988      0.011905      0.139547
    2929.1004     13.365627     68.525284      2.437428      0.008258      0.138792
    2929.2004     13.331551     68.094208      2.442440      0.005353      0.138417
    2929.3004     13.422264     67.452377      2.452255      0.006172      0.134820
    2929.4004     13.586069     66.689743      2.464471      0.008464      0.128865
    2929.5004     13.809580     65.830307      2.477938      0.010977      0.120539
    2929.6004     14.026205     65.011932      2.491716      0.010896      0.110502
    2929.7004     14.234426     64.257278      2.505900      0.009309      0.100054
    2929.8004     14.441408     63.614410      2.521137      0.006792      0.090074
    2929.9004     14.558945     63.111160      2.535741      0.004552      0.082538
    2930.0004     14.569574     62.682259      2.549287      0.002910      0.076640
    2930.1004     14.374746     62.350563      2.559359      0.002657      0.072821
    2930.2004     14.034504     62.093697      2.564139      0.003629      0.071218
    2930.3004     13.638611     61.899719      2.564806      0.004849      0.071356
    2930.4004     13.276768     61.809502      2.561647      0.004786      0.073619
    2930.5004     12.986296     61.818115      2.558454      0.004816      0.077655
    2930.6004     12.776701     61.902916      2.556213      0.005957      0.082622
    2930.7004     12.705557     62.068954      2.554210      0.009847      0.087299
    2930.8004     12.684574     62.269920      2.548998      0.013252      0.090827
    2930.9004     12.633512     62.471970      2.540432      0.014434      0.093215
    2931.0004     12.410322     62.622261      2.531343      0.011710      0.094684
    2931.1004     12.101118     62.697433      2.525956      0.008590      0.095863
    2931.2004     11.849241     62.690971      2.525524      0.007210      0.096673
    2931.3004     11.978544     62.567436      2.529666      0.008700      0.095745
    2931.4004     12.410700     62.362434      2.534358      0.010565      0.093290
    2931.5004     12.964643     62.114311      2.537857      0.011346      0.089963
    2931.6004     13.444836     61.843102      2.542687      0.012178      0.086190
    2931.7004     13.788748     61.582474      2.549554      0.013926      0.082215
    2931.8004     14.016626     61.357979      2.558032      0.016634      0.077998
    2931.9004     14.158373     61.186493      2.567814      0.019498      0.073102
    2932.0004     14.216705     61.068893      2.577231      0.021450      0.068170
    2932.1004     14.145863     61.007881      2.584893      0.021822      0.064169
    2932.2004     13.871231     61.033119      2.589293      0.020315      0.062527
    2932.3004     13.520243     61.152199      2.591171      0.018161      0.062993
    2932.4004     13.273447     61.383629      2.591601      0.016635      0.065076
    2932.5004     13.248060     61.751907      2.590187      0.016156      0.069380
    2932.6004     13.350239     62.226990      2.586881      0.015991      0.075420
    2932.7004     13.391594     62.779701      2.580762      0.014943      0.082396
    2932.8004     13.267454     63.356575      2.569695      0.012366      0.089309
    2932.9004     13.025843     63.898872      2.554152      0.008985      0.095037
    2933.0004     12.824291     64.358627      2.536663      0.006273      0.098459
    2933.1004     12.795788     64.712646      2.519764      0.004962      0.099088
    2933.2004     12.927130     64.991989      2.505109      0.004583      0.098085
    2933.3004     13.072971     65.232590      2.493658      0.004191      0.096936
    2933.4004     13.089172     65.470200      2.486185      0.003386      0.096317
    2933.5004     12.972012     65.735291      2.482426      0.002414      0.096219
    2933.6004     12.894505     66.031784      2.482786      0.001775      0.096497
    2933.7004     13.055235     66.341599      2.486958      0.001514      0.097190
    2933.8004     13.516602     66.641617      2.492749      0.001376      0.098371
    2933.9004     14.181934     66.920715      2.497246      0.001341      0.100260
    2934.0004     14.838661     67.186783      2.497655      0.001557      0.103113
    2934.1004     15.282082     67.463943      2.492854      0.002090      0.107119
    2934.2004     15.440905     67.759766      2.483222      0.002767      0.112359
    2934.3004     15.429932     68.070511      2.471792      0.003408      0.118279
    2934.4004     15.407291     68.361115      2.463025      0.004263      0.123606
    2934.5004     15.369844     68.559067      2.460397      0.006150      0.126807
    2934.6004     15.291145     68.617249      2.463226      0.009274      0.127661
    2934.7004     15.144505     68.513687      2.468255      0.012913      0.126659
    2934.8004     14.923159     68.203644      2.473943      0.015956      0.123502
    2934.9004     14.668404     67.735764      2.479083      0.017774      0.119212
    2935.0004     14.403030     67.200958      2.483454      0.018323      0.115265
    2935.1004     14.056835     66.635330      2.487258      0.017432      0.112325
    2935.2004     13.657227     66.097717      2.490525      0.015491      0.110274
    2935.3004     13.345297     65.635925      2.493098      0.012758      0.108404
    2935.4004     13.336094     65.276505      2.495289      0.008872      0.105958
    2935.5004     13.648310     65.012527      2.498053      0.004650      0.102923
    2935.6004     14.182219     64.834747      2.502604      0.001570      0.099900
    2935.7004     14.768934     64.751648      2.509717      0.001555      0.097968
    2935.8004     15.249937     64.747147      2.518209      0.004192      0.097345
    2935.9004     15.562407     64.823090      2.526424      0.008084      0.097881
    2936.0004     15.659094     64.982651      2.531623      0.011370      0.099837
    2936.1004     15.546204     65.196793      2.533171      0.013206      0.102755
    2936.2004     15.168331     65.449692      2.531005      0.013546      0.106242
    2936.3004     14.548899     65.696503      2.525481      0.012833      0.109872
    2936.4004     13.867840     65.893402      2.518449      0.011650      0.113040
    2936.5004     13.336660     65.985306      2.511501      0.010117      0.114783
    2936.6004     13.084993     65.928284      2.505666      0.008290      0.113926
    2936.7004     13.052691     65.725815      2.501420      0.006638      0.110428
    2936.8004     13.160294     65.338348      2.500273      0.006272      0.103875
    2936.9004     13.310545     64.814148      2.502387      0.007068      0.095653
    2937.0004     13.488939     64.204239      2.506943      0.008374      0.087016
    2937.1004     13.777203     63.546753      2.513966      0.009429      0.079658
    2937.2004     14.134953     62.912674      2.523698      0.010840      0.074163
    2937.3004     14.506474     62.316544      2.536439      0.013152      0.070153
    2937.4004     14.733229     61.832977      2.554451      0.017706      0.068050
    2937.5004     14.870964     61.440071      2.574646      0.022813      0.066655
    2937.6004     14.966295     61.119522      2.594746      0.027346      0.065427
    2937.7004     15.025703     60.932068      2.607464      0.027729      0.064329
    2937.8004     15.014439     60.847664      2.614697      0.025864      0.063704
    2937.9004     14.919319     60.853294      2.617573      0.022780      0.063709
    2938.0004     14.643343     61.024239      2.611280      0.019910      0.065884
    2938.1004     14.364599     61.294121      2.601210      0.017605      0.068729
    2938.2004     14.157724     61.642311      2.589303      0.015993      0.071630
    2938.3004     13.949011     62.018494      2.576075      0.013725      0.072706
