# LAS format data
~Version Information
VERS.     2.00: CWLS LOG ASCII STANDARD - VERSION 2.0
WRAP.       NO: ONE LINE PER DEPTH STEP
~Well Information
#MNEM   .UNITS    DATA                           DESCRIPTION
#----   ------    ----                           -----------
STRT    .M        29.6000                       :First Index Value
STOP    .M        3321.6001                     :Last Index Value
STEP    .M        0.1000                        :Frame Spacing
NULL    .         -999.2500                     :Absent Value
WELL    .         A08-01                        :Well Name   
FLD     .         FINDER_non_standard_22-02-2005  :Field Name  
CNTY    .                                       :County
STAT    .                                       :State
CTRY    .         Netherlands                   :Country
LOC     .         Offshore                              :Location
API     .                                       :API Number
DATE    .        01/02/2020                     :Date
COMP    .        Test Oil Company               :Company Name
SRVC    .        Best Logging Services          :Service Company
~Parameter Information
#MNEM   .UNITS    VALUE                          DESCRIPTION
#----   ------    -----                          -----------
TDD     .M        3348.00000                    :Total Depth (Driller)   
UBID    .         8267                          :Unique Borehole Id  
PDAT    .         Mean Sea Level                :Permanent Datum 
EPD     .M           0.00000                    :Elevation of Permanent Datum (PDAT) above Mean Sea Level
LMF     .                                       :Logging Measured From (Name of Logging Elevation Reference) 
APD     .M          35.00000                    :Elevation of Depth Reference (LMF) Above Permanent Datum
~Other Information
composite_curve_qc 
~Curve Information
#MNEM   .UNITS    API CODE                       CURVE DESCRIPTION
#----   ------    --------                       -----------------
DEPT    .M                                      :1     Index curve
GR      .GAPI                                   :2     A08-01
DT      .US/F                                   :3     A08-01
RHOB    .G/C3                                   :4     A08-01
DRHO    .G/C3                                   :5     A08-01
NPHI    .V/V                                    :6     A08-01
~Ascii Log Data
# ...
    1767.2002     49.145226    146.675873      2.107563      0.021695      0.665837
    1767.3002     49.449112    146.709930      2.113822      0.022456      0.602285
    1767.4002     49.822365    146.913757      2.120151      0.024811      0.564718
    1767.5002     50.391167    147.206329      2.126460      0.027592      0.544452
    1767.6002     51.256386    147.562469      2.131667      0.029446      0.536272
    1767.7002     52.057716    147.837372      2.133574      0.028912      0.549446
    1767.8002     52.595673    147.977020      2.133331      0.026910      0.575761
    1767.9002     52.591164    147.871429      2.132009      0.024399      0.606124
    1768.0002     52.308250    147.454681      2.130564      0.022228      0.619721
    1768.1002     52.002724    146.804291      2.129169      0.020414      0.619730
    1768.2002     51.952637    145.932343      2.127861      0.019122      0.610651
    1768.3002     52.177406    145.033661      2.127707      0.019201      0.620230
    1768.4002     52.587044    144.206116      2.128846      0.020564      0.649069
    1768.5002     53.200493    143.649048      2.132536      0.024003      0.701901
    1768.6002     53.685814    143.304596      2.137323      0.027788      0.745298
    1768.7002     53.923141    143.119049      2.142097      0.030960      0.770408
    1768.8002     53.311607    143.179596      2.143388      0.030003      0.745574
    1768.9002     52.328659    143.352631      2.140437      0.026242      0.709655
    1769.0002     51.249817    143.575806      2.134129      0.021040      0.676549
    1769.1002     50.896629    143.746521      2.124226      0.018916      0.678383
    1769.2002     51.036331    143.866608      2.115727      0.019809      0.701375
    1769.3002     51.515137    143.943054      2.109740      0.023070      0.738328
    1769.4002     51.900612    143.874786      2.111260      0.025457      0.795283
    1769.5002     52.116333    143.697021      2.115558      0.026515      0.848256
    1769.6002     52.157219    143.426514      2.121214      0.026249      0.890201
    1769.7002     52.040886    143.407471      2.126235      0.026551      0.866859
    1769.8002     51.960693    143.761139      2.129854      0.026989      0.814682
    1769.9002     51.982727    144.551025      2.131691      0.027333      0.745038
    1770.0002     52.460037    145.937469      2.131016      0.026312      0.691560
    1770.1002     53.044716    147.523041      2.129755      0.025018      0.653852
    1770.2002     53.611664    149.254578      2.128594      0.023902      0.631540
    1770.3002     53.339874    150.511200      2.128522      0.023598      0.625533
    1770.4002     52.519188    151.046112      2.130994      0.024395      0.625239
    1770.5002     51.173851    150.502930      2.138002      0.026903      0.626536
    1770.6002     49.881775    148.960815      2.159843      0.034038      0.646251
    1770.7002     48.971390    147.232849      2.187237      0.042416      0.681409
    1770.8002     48.715027    145.734100      2.214954      0.049772      0.737095
    1770.9002     49.145271    144.957855      2.223256      0.050147      0.803174
    1771.0002     49.868683    144.801147      2.215812      0.045602      0.868184
    1771.1002     50.584457    145.439972      2.192754      0.037306      0.917970
    1771.2002     50.915054    146.216095      2.165623      0.028910      0.948028
    1771.3002     50.897430    146.685608      2.140777      0.021760      0.961359
    1771.4002     50.497513    146.237030      2.126045      0.017811      0.945777
    1771.5002     50.007843    145.207306      2.122267      0.017766      0.885161
    1771.6002     49.607628    144.066132      2.124742      0.020132      0.793886
    1771.7002     49.529778    143.409943      2.129260      0.023233      0.698431
    1771.8002     49.761459    143.396698      2.132035      0.025290      0.625626
    1771.9002     50.170494    143.924988      2.132325      0.026014      0.582903
    1772.0002     50.563919    144.982269      2.130331      0.025699      0.580031
    1772.1002     50.810593    146.242310      2.127622      0.025065      0.599716
    1772.2002     50.884781    147.349426      2.124881      0.024221      0.627245
    1772.3002     50.776375    147.654785      2.121689      0.022367      0.652065
    1772.4002     50.581841    147.221741      2.118312      0.019772      0.672263
    1772.5002     50.327682    146.340851      2.115910      0.017243      0.691415
    1772.6002     49.886642    145.392059      2.117652      0.016341      0.717675
    1772.7002     49.308846    144.716064      2.121790      0.016370      0.746189
    1772.8002     48.733948    144.487061      2.124248      0.016006      0.764347
    1772.9002     48.387772    144.848419      2.118211      0.013998      0.750660
    1773.0002     48.322014    145.568390      2.105403      0.011707      0.713278
    1773.1002     48.472672    146.349365      2.092452      0.011536      0.670686
    1773.2002     48.777008    146.971069      2.086880      0.015289      0.632865
    1773.3002     49.168167    147.290863      2.089605      0.021077      0.604833
    1773.4002     49.659737    147.304810      2.097018      0.025616      0.590960
    1773.5002     50.305305    147.140625      2.106104      0.027343      0.601779
    1773.6002     50.951431    146.885895      2.113945      0.027024      0.631866
    1773.7002     51.293251    146.469666      2.119199      0.026200      0.663195
    1773.8002     51.063858    145.819061      2.121212      0.025100      0.673901
    1773.9002     50.362366    145.076874      2.121131      0.023982      0.658949
    1774.0002     49.529465    144.415741      2.120464      0.023288      0.632658
    1774.1002     48.881271    143.775513      2.119732      0.023447      0.610533
    1774.2002     48.610092    143.125458      2.119154      0.024370      0.600724
    1774.3002     48.730881    142.615021      2.119040      0.025767      0.598552
    1774.4002     49.231155    142.453003      2.120203      0.027702      0.600027
    1774.5002     49.999405    142.563629      2.123079      0.030140      0.604141
    1774.6002     50.927010    142.670074      2.127276      0.032739      0.617406
    1774.7002     51.804878    142.793304      2.131459      0.034772      0.647139
    1774.8002     52.394302    143.195312      2.134172      0.035644      0.695851
    1774.9002     52.517281    144.021851      2.134976      0.035171      0.760394
    1775.0002     52.234985    144.837708      2.134809      0.033745      0.827147
    1775.1002     51.761765    145.084686      2.134531      0.031358      0.875266
    1775.2002     51.124695    144.780426      2.131392      0.025734      0.882258
    1775.3002     50.297867    144.629974      2.119595      0.013854      0.845664
    1775.4002     49.169632    145.362885      2.092313     -0.006284      0.785258
    1775.5002     47.609421    147.058502      2.044574     -0.034444      0.721380
    1775.6002     45.805130    149.305084      1.986403     -0.063904      0.673743
    1775.7002     44.219963    151.483185      1.938515     -0.084181      0.654288
    1775.8002     43.372307    153.059875      1.921188     -0.085083      0.672090
    1775.9002     43.222893    153.527893      1.932321     -0.069998      0.707415
    1776.0002     43.452263    152.613739      1.959274     -0.048333      0.728496
    1776.1002     43.992744    150.281586      2.000580     -0.023393      0.712815
    1776.2002     44.666801    147.450012      2.047101     -0.000183      0.671943
    1776.3002     45.318199    145.176239      2.088713      0.016861      0.633429
    1776.4002     45.786087    144.263916      2.116004      0.023250      0.616142
    1776.5002     46.031738    144.529846      2.129364      0.022927      0.615575
    1776.6002     46.144211    145.353516      2.132823      0.021761      0.613462
    1776.7002     46.398148    146.047455      2.128533      0.022537      0.588199
