# LAS format data
~Version Information
VERS.     2.00: CWLS LOG ASCII STANDARD - VERSION 2.0
WRAP.       NO: ONE LINE PER DEPTH STEP
~Well Information
#MNEM   .UNITS    DATA                           DESCRIPTION
#----   ------    ----                           -----------
STRT    .M        29.6000                       :First Index Value
STOP    .M        3321.6001                     :Last Index Value
STEP    .M        0.1000                        :Frame Spacing
NULL    .         -999.2500                     :Absent Value
WELL    .         A08-01                        :Well Name   
FLD     .         FINDER_non_standard_22-02-2005  :Field Name  
CNTY    .                                       :County
STAT    .                                       :State
CTRY    .         Netherlands                   :Country
LOC     .         Offshore                              :Location
API     .                                       :API Number
DATE    .        01/02/2020                     :Date
COMP    .        Test Oil Company               :Company Name
SRVC    .        Best Logging Services          :Service Company
~Parameter Information
#MNEM   .UNITS    VALUE                          DESCRIPTION
#----   ------    -----                          -----------
TDD     .M        3348.00000                    :Total Depth (Driller)   
UBID    .         8267                          :Unique Borehole Id  
PDAT    .         Mean Sea Level                :Permanent Datum 
EPD     .M           0.00000                    :Elevation of Permanent Datum (PDAT) above Mean Sea Level
LMF     .                                       :Logging Measured From (Name of Logging Elevation Reference) 
APD     .M          35.00000                    :Elevation of Depth Reference (LMF) Above Permanent Datum
~Other Information
composite_curve_qc 
~Curve Information
#MNEM   .UNITS    API CODE                       CURVE DESCRIPTION
#----   ------    --------                       -----------------
DEPT    .M                                      :1     Index curve
GR      .GAPI                                   :2     A08-01
DT      .US/F                                   :3     A08-01
RHOB    .G/C3                                   :4     A08-01
DRHO    .G/C3                                   :5     A08-01
NPHI    .V/V                                    :6     A08-01
~Ascii Log Data
# ...
    3120.8001     11.808743     64.416122      2.521273      0.010843      0.110327
    3120.9001     11.756193     64.639709      2.521721      0.010096      0.114798
    3121.0001     11.752323     64.775696      2.521399      0.009326      0.121061
    3121.1001     11.751556     64.861038      2.519634      0.009081      0.127577
    3121.2001     11.758842     64.928635      2.514391      0.009598      0.132391
    3121.3001     11.776279     65.014969      2.505196      0.009921      0.135141
    3121.4001     11.785351     65.128265      2.493488      0.009374      0.136050
    3121.5001     11.739084     65.257584      2.482199      0.007616      0.134733
    3121.6001     11.664831     65.376083      2.473672      0.005369      0.131859
    3121.7001     11.615311     65.459213      2.469016      0.003554      0.128498
    3121.8001     11.645519     65.475052      2.469119      0.003220      0.126168
    3121.9001     11.702688     65.418182      2.471984      0.004449      0.125799
    3122.0001     11.724632     65.293625      2.475381      0.006840      0.127568
    3122.1001     11.728834     65.079895      2.478304      0.010225      0.131508
    3122.2001     11.791960     64.796326      2.479676      0.013386      0.135863
    3122.3001     11.970282     64.473999      2.478793      0.015021      0.138532
    3122.4001     12.245707     64.122925      2.475476      0.014410      0.137959
    3122.5001     12.526318     63.763695      2.472412      0.012726      0.134705
    3122.6001     12.755016     63.394508      2.474672      0.011872      0.129688
    3122.7001     12.969923     62.992691      2.488356      0.012824      0.122102
    3122.8001     13.202934     62.549728      2.511865      0.014738      0.112500
    3122.9001     13.428574     62.074402      2.538889      0.015615      0.102017
    3123.0001     13.558825     61.644920      2.563627      0.014160      0.092082
    3123.1001     13.567623     61.388130      2.581852      0.011066      0.083745
    3123.2001     13.534012     61.457390      2.592882      0.008409      0.077386
    3123.3001     13.615522     61.987282      2.597607      0.007555      0.073627
    3123.4001     14.045322     62.976875      2.600878      0.008383      0.072089
    3123.5001     15.173840     64.370377      2.607393      0.009565      0.072306
    3123.6001     17.429337     66.052795      2.617739      0.010065      0.074369
    3123.7001     21.083778     67.856232      2.628394      0.009057      0.077819
    3123.8001     26.259655     69.709366      2.634829      0.006584      0.082696
    3123.9001     32.484100     71.602203      2.635811      0.004386      0.090438
    3124.0001     38.735413     73.579163      2.633592      0.005167      0.102585
    3124.1001     44.178543     75.673187      2.629996      0.010598      0.120266
    3124.2001     48.436844     77.817612      2.624992      0.018862      0.142155
    3124.3001     51.769646     79.893127      2.618269      0.025770      0.164226
    3124.4001     54.236588     81.676926      2.610642      0.028281      0.181935
    3124.5001     56.056335     82.978592      2.603973      0.026771      0.193632
    3124.6001     57.215591     83.749863      2.599798      0.024242      0.200714
    3124.7001     56.983925     83.882904      2.598852      0.022552      0.203228
    3124.8001     55.455597     83.537476      2.600156      0.021778      0.202304
    3124.9001     53.276634     82.987976      2.601924      0.020844      0.198591
    3125.0001     50.980270     82.418137      2.602529      0.018973      0.191152
    3125.1001     49.146042     81.975540      2.600376      0.015816      0.181955
    3125.2001     48.224976     81.715714      2.595340      0.011899      0.174285
    3125.3001     48.848022     81.675278      2.588895      0.008608      0.171641
    3125.4001     50.632538     81.785873      2.583550      0.006905      0.173434
    3125.5001     53.205551     81.990433      2.580883      0.007130      0.177630
    3125.6001     57.368309     82.333237      2.581387      0.009743      0.183788
    3125.7001     62.590622     82.837982      2.583644      0.013723      0.190695
    3125.8001     67.815170     83.532227      2.586246      0.017924      0.198114
    3125.9001     71.561646     84.502869      2.588115      0.021222      0.208277
    3126.0001     73.129501     85.654022      2.588290      0.022685      0.220249
    3126.1001     72.119141     86.917633      2.585939      0.021450      0.231795
    3126.2001     68.598633     88.137985      2.580975      0.016821      0.236810
    3126.3001     64.463806     89.190369      2.575482      0.010914      0.236040
    3126.4001     61.285034     90.012527      2.571264      0.005644      0.232134
    3126.5001     60.302635     90.545227      2.569633      0.002694      0.230589
    3126.6001     60.981827     90.885696      2.569981      0.001707      0.232611
    3126.7001     62.921196     91.106308      2.572134      0.002499      0.237895
    3126.8001     65.271622     91.386993      2.576668      0.005427      0.241369
    3126.9001     67.437881     91.808273      2.582244      0.009368      0.241214
    3127.0001     69.008148     92.503296      2.586999      0.013019      0.235924
    3127.1001     69.759277     93.364288      2.587006      0.014308      0.230768
    3127.2001     69.972443     94.258560      2.581640      0.013214      0.228587
    3127.3001     69.936157     94.928558      2.567932      0.009181      0.233800
    3127.4001     70.614838     95.126938      2.547397      0.003589      0.243263
    3127.5001     72.462875     94.887909      2.522859     -0.002279      0.254227
    3127.6001     77.519012     93.982803      2.500093     -0.004941      0.262317
    3127.7001     84.383652     92.670258      2.485733     -0.002866      0.269053
    3127.8001     92.128036     91.063492      2.479798      0.003393      0.275838
    3127.9001     96.895767     89.203720      2.493581      0.015820      0.285349
    3128.0001     97.648041     87.046646      2.519866      0.030135      0.292514
    3128.1001     94.592834     84.648102      2.554655      0.044584      0.295610
    3128.2001     82.242310     81.925934      2.594831      0.050176      0.276062
    3128.3001     68.103256     79.029099      2.632333      0.048816      0.246093
    3128.4001     54.295769     76.036179      2.664958      0.041284      0.209598
    3128.5001     46.509926     73.341232      2.683409      0.027498      0.181984
    3128.6001     40.988716     70.940964      2.700099      0.015962      0.161152
    3128.7001     37.015251     68.929184      2.718000      0.009701      0.147604
    3128.8001     34.432007     67.493622      2.732580      0.010365      0.144572
    3128.9001     32.164406     66.317780      2.741067      0.010861      0.144955
    3129.0001     30.050327     65.410278      2.740513      0.008451      0.146957
    3129.1001     27.857292     64.715637      2.727585      0.006759      0.144902
    3129.2001     25.796139     64.164917      2.710458      0.007741      0.138919
    3129.3001     24.107487     63.793564      2.692978      0.013047      0.128381
    3129.4001     23.073364     63.607521      2.671308      0.016782      0.115213
    3129.5001     22.255356     63.546249      2.648098      0.017570      0.103031
    3129.6001     21.366676     63.626328      2.625355      0.013722      0.094969
    3129.7001     20.090328     63.881660      2.611490      0.009378      0.092267
    3129.8001     18.702389     64.270844      2.603577      0.006478      0.092309
    3129.9001     17.438820     64.855148      2.600004      0.007052      0.093840
    3130.0001     16.874165     65.624298      2.596060      0.008326      0.097387
    3130.1001     17.127583     66.455475      2.591300      0.008989      0.102216
    3130.2001     18.901478     67.324387      2.585704      0.007859      0.108561
    3130.3001     21.712524     68.092819      2.582886      0.006539      0.115199
