# LAS format data
~Version Information
VERS.     2.00: CWLS LOG ASCII STANDARD - VERSION 2.0
WRAP.       NO: ONE LINE PER DEPTH STEP
~Well Information
#MNEM   .UNITS    DATA                           DESCRIPTION
#----   ------    ----                           -----------
STRT    .M        29.6000                       :First Index Value
STOP    .M        3321.6001                     :Last Index Value
STEP    .M        0.1000                        :Frame Spacing
NULL    .         -999.2500                     :Absent Value
WELL    .         A08-01                        :Well Name   
FLD     .         FINDER_non_standard_22-02-2005  :Field Name  
CNTY    .                                       :County
STAT    .                                       :State
CTRY    .         Netherlands                   :Country
LOC     .         Offshore                              :Location
API     .                                       :API Number
DATE    .        01/02/2020                     :Date
COMP    .        Test Oil Company               :Company Name
SRVC    .        Best Logging Services          :Service Company
~Parameter Information
#MNEM   .UNITS    VALUE                          DESCRIPTION
#----   ------    -----                          -----------
TDD     .M        3348.00000                    :Total Depth (Driller)   
UBID    .         8267                          :Unique Borehole Id  
PDAT    .         Mean Sea Level                :Permanent Datum 
EPD     .M           0.00000                    :Elevation of Permanent Datum (PDAT) above Mean Sea Level
LMF     .                                       :Logging Measured From (Name of Logging Elevation Reference) 
APD     .M          35.00000                    :Elevation of Depth Reference (LMF) Above Permanent Datum
~Other Information
composite_curve_qc 
~Curve Information
#MNEM   .UNITS    API CODE                       CURVE DESCRIPTION
#----   ------    --------                       -----------------
DEPT    .M                                      :1     Index curve
GR      .GAPI                                   :2     A08-01
DT      .US/F                                   :3     A08-01
RHOB    .G/C3                                   :4     A08-01
DRHO    .G/C3                                   :5     A08-01
NPHI    .V/V                                    :6     A08-01
~Ascii Log Data
# ...
    1575.2002     59.535500    154.544128      1.997581     -0.007550      0.792126
    1575.3002     58.640953    153.373199      2.028121      0.003882      0.777734
    1575.4002     57.407707    151.841553      2.051282      0.010601      0.727995
    1575.5002     56.229240    150.305695      2.065476      0.013864      0.661402
    1575.6002     55.373787    149.081726      2.072928      0.015784      0.602036
    1575.7002     54.820816    148.309021      2.073721      0.016603      0.564792
    1575.8002     54.341805    147.973999      2.071584      0.016971      0.551828
    1575.9002     53.754761    148.009125      2.069713      0.017019      0.561958
    1576.0002     53.137939    148.425079      2.067656      0.015804      0.606572
    1576.1002     52.607849    148.965515      2.064177      0.013631      0.668208
    1576.2002     52.217804    149.404144      2.058111      0.011841      0.716765
    1576.3002     51.960251    149.693634      2.049451      0.012677      0.714124
    1576.4002     51.726791    149.973541      2.040788      0.015655      0.669235
    1576.5002     51.449303    150.368286      2.035250      0.018953      0.611955
    1576.6002     51.239754    150.705780      2.036975      0.020547      0.574643
    1576.7002     51.147713    150.745697      2.044613      0.020330      0.564412
    1576.8002     51.093445    150.291168      2.056107      0.018902      0.574906
    1576.9002     50.668434    149.369354      2.070370      0.016349      0.599710
    1577.0002     49.665604    148.224976      2.085268      0.013150      0.627266
    1577.1002     47.989464    147.128143      2.098393      0.009836      0.648227
    1577.2002     46.046288    146.697449      2.105827      0.007640      0.655077
    1577.3002     44.332443    147.138031      2.107003      0.006680      0.647083
    1577.4002     43.403389    148.662720      2.100127      0.006948      0.620654
    1577.5002     43.354233    150.561371      2.085113      0.008131      0.584244
    1577.6002     43.808388    152.260223      2.066236      0.009597      0.551308
    1577.7002     44.463730    153.190094      2.049378      0.010641      0.541437
    1577.8002     45.063530    153.220245      2.038501      0.011093      0.556846
    1577.9002     45.579933    152.625885      2.033315      0.011451      0.584975
    1578.0002     46.078766    151.552399      2.035153      0.012815      0.608993
    1578.1002     46.636444    150.693054      2.041334      0.015205      0.616868
    1578.2002     47.222328    150.268219      2.049309      0.018131      0.609609
    1578.3002     47.690300    150.615845      2.055946      0.020809      0.586227
    1578.4002     47.915947    151.466522      2.059441      0.023148      0.571401
    1578.5002     47.908661    152.592377      2.060047      0.025133      0.572643
    1578.6002     47.470139    153.988251      2.056968      0.026263      0.628247
    1578.7002     47.036301    155.121765      2.052390      0.025575      0.698226
    1578.8002     46.742401    155.871704      2.047099      0.023070      0.766680
    1578.9002     47.378906    155.914948      2.036699      0.015216      0.780198
    1579.0002     48.227036    155.665314      2.024455      0.006715      0.776403
    1579.1002     49.047348    155.250397      2.011644     -0.000912      0.767854
    1579.2002     49.139717    154.657410      2.005239     -0.001942      0.759521
    1579.3002     48.993164    154.012054      2.003634      0.000217      0.746079
    1579.4002     48.774208    153.360901      2.006603      0.004545      0.725116
    1579.5002     48.661217    152.612518      2.018588      0.010312      0.715065
    1579.6002     48.483887    151.767944      2.033872      0.015028      0.713025
    1579.7002     48.125885    150.758881      2.051435      0.017636      0.718410
    1579.8002     47.534126    149.756744      2.060239      0.010030      0.709993
    1579.9002     46.927383    149.204437      2.061232     -0.001217      0.695668
    1580.0000     46.403244    149.527954      2.052732     -0.013465      0.679287
    1580.1000     46.091286    151.288391      2.037973     -0.015360      0.687243
    1580.2000     45.903389    153.580170      2.024711     -0.011014      0.708780
    1580.3000     45.808365    156.046478      2.018957     -0.001639      0.740257
    1580.4000     45.723839    157.654602      2.025337      0.006510      0.751927
    1580.5000     45.631401    158.520355      2.036427      0.012432      0.745154
    1580.6000     45.530472    158.261780      2.045442      0.013931      0.712116
    1580.7000     45.488121    157.190063      2.043696      0.011719      0.659955
    1580.8000     45.466576    155.750580      2.035439      0.008322      0.600502
    1580.9000     45.384689    154.199432      2.024596      0.006785      0.545330
    1581.0000     45.184006    152.931824      2.022961      0.009482      0.516669
    1581.1000     44.910202    151.906586      2.030225      0.015036      0.510803
    1581.2000     44.662537    151.314362      2.049085      0.021616      0.537796
    1581.3000     44.568695    151.021057      2.069264      0.026004      0.575473
    1581.4000     44.649673    150.969116      2.084866      0.027351      0.611839
    1581.5000     45.014122    151.375702      2.082942      0.023300      0.630915
    1581.6000     45.518616    152.295593      2.071255      0.017931      0.646803
    1581.7000     46.092377    153.616516      2.056552      0.013621      0.663850
    1581.8000     46.748230    155.034576      2.050469      0.014284      0.671454
    1581.9000     47.364807    155.982452      2.050845      0.016692      0.661121
    1582.0000     47.807610    156.262695      2.053896      0.018450      0.635705
    1582.1000     47.592155    155.799561      2.051291      0.016107      0.623575
    1582.2000     47.026489    155.074799      2.044327      0.012650      0.639686
    1582.3000     46.369026    154.334503      2.036188      0.010733      0.687620
    1582.4000     45.795181    153.631622      2.033241      0.013493      0.765994
    1582.5000     45.292496    153.165558      2.034671      0.018093      0.833099
    1582.6000     44.839874    153.057312      2.037334      0.021263      0.853923
    1582.7000     44.579666    153.161041      2.036155      0.020454      0.802503
    1582.8000     44.599174    153.126404      2.030860      0.017445      0.720080
    1582.9000     44.929077    152.701660      2.024234      0.015035      0.652484
    1583.0000     45.452415    151.860321      2.022484      0.015660      0.622964
    1583.1000     45.957588    150.780090      2.027725      0.018711      0.621929
    1583.2000     46.312881    149.621216      2.040215      0.022612      0.633384
    1583.3000     46.511032    148.610535      2.059826      0.026325      0.652101
    1583.4000     46.620430    147.893005      2.081490      0.029076      0.675771
    1583.5000     46.693489    147.474121      2.099510      0.030262      0.708045
    1583.6000     46.766899    147.226715      2.109017      0.029078      0.751887
    1583.7000     46.907181    147.019318      2.110232      0.026058      0.798081
    1583.8000     47.178192    146.836212      2.105628      0.022409      0.829213
    1583.9000     47.521164    146.678192      2.097481      0.019551      0.829476
    1584.0000     47.804337    146.551819      2.088799      0.018248      0.800362
    1584.1000     47.928871    146.497467      2.081529      0.018354      0.750988
    1584.2000     47.919731    146.575470      2.076175      0.018995      0.689440
    1584.3000     47.880074    146.688812      2.071822      0.019170      0.627245
    1584.4000     47.851204    146.598083      2.068086      0.018692      0.581131
    1584.5000     47.802483    146.240875      2.065420      0.018183      0.565819
    1584.6000     47.653175    145.813385      2.064560      0.018447      0.582528
    1584.7000     47.334938    145.567230      2.066316      0.019654      0.624423
