~VERSION INFORMATION 
VERS  .    2.0                                     :CWLS Log ASCII Standard - VERSION 2.0
WRAP  .    NO                                      :One Line per Depth step
PROD  .    Schlumberger Technology Corp.           :LAS Producer
PROG  .    Horizon LASWriter 10.1.205256.3100      :LAS Program name and version
SOURCE.    Run8_8.5in-Drilling                     :Run&Pass Information
CREA  .    01/07/2021                              :LAS Creation date {MM/DD/YYYY}
#--------------------------------------------------
~WELL INFORMATION 
#MNEM           .UNIT                      DATA            :DESCRIPTION
#----            ------          --------------            -----------------------------
STRT            .m                   5149.90080            :START DEPTH
STOP            .m                   5618.07360            :STOP DEPTH
STEP            .m                       0.1524            :STEP
NULL            .                       -999.25            :NULL VALUE
COMP            .                BP Development Australia Pty Ltd:COMPANY
WELL            .                    Ironbark-1            :WELL NAME
FLD             .                      Ironbark            :FIELD NAME
RIGN            .                    Ocean Apex            :Rig Name
RIGTYP          .                Semi-Submersible          :Rig Type
SON             .                     20AWA0029            :Service Order Number
SRVC            .                  Schlumberger            :SERVICE COMPANY
DATE            .                    12/25/2020            :LOG DATE(Composite Date for Composite LAP) (MM/DD/YYYY)
CLAB            .                       County:            :County Label
CNTY            .                                          :COUNTY
SLAB            .                        State:            :State/Province Label
STAT            .                Western Australia         :STATE or PROVINCE
PROV            .                Western Australia         :STATE or PROVINCE
CTRY            .                     Australia            :COUNTRY
CONT_REGION     .                   Australasia            :Continent Region
SECT            .                                          :Section
TOWN            .                                          :Township
RANG            .                                          :Range
API             .                                          :API NUMBER
UWI             .                     20AWA0029            :UNIQUE WELL ID
LUL             .                 Portside Deck            :Logging Unit Location
LUN             .                       1010979            :Logging Unit Number
LOC             .                      WA-359-P            :FIELD LOCATION
FL1             .                Northing: 7,881,270.990 m :Field Location Line 1
FL2             .                Easting: 402,902.910 m    :Field Location Line 2
LATI            .deg             19° 9' 34.079" S          :LATITUDE
LONG            .deg             116° 4' 35.795" E         :LONGITUDE
PDAT            .                           MSL            :Local Permanent Datum
LMF             .                            DF            :Logging Measured From
APD             .m                     23.85000            :Elevation of Depth Reference (LMF) Above Permanent Datum
EPD             .m                      0.00000            :Elevation of Permanent Datum (PDAT) above Mean Sea Level
EKB             .m                      -999.25            :Elevation of Kelly Bushing Above Permanent Datum
EDF             .m                     23.85000            :Elevation of Drill Floor Above Permanent Datum
EGL             .m                   -300.95000            :Elevation of Ground Level Above Permanent Datum
ECF             .m                      -999.25            :Elevation of Casing Flange above Permanent Datum
#--------------------------------------------------
~CURVE INFORMATION
#MNEM           .UNIT                  API CODE            :DESCRIPTION
#----            ------          --------------            -----------------------------
DEPT            .m                                         :                                                        Depth Index
TVD             .m                                         :(RT)    (DnMWorkflow)           (6in)                   True Vertical Depth
ROP5            .m/h                                       :(RT)    (DRILLING_SURFACE)      (6in)                   Rate of penetration averaged over the last 5 ft (1.5 m)
GR              .gAPI                                      :(RM)    (ARC6)                  (6in)                   Gamma Ray
BS              .in                                        :(RT)    (Borehole)              (6in)                   Bit Size
ADIA            .in                                        :(RM)    (ADN6C)                 (6in)                   Average Borehole Diameter
DCAV            .in                                        :(RM)    (ADN6C)                 (6in)                   Density Caliper, Average - filtered if Orion compressed
BLKP            .m                                         :(RT)    (DRILLING_SURFACE)      (6in)                   Height of block above rig floor
HKLA            .1000 lbf                                  :(RT)    (DRILLING_SURFACE)      (6in)                   Average Hookload
SWOB            .1000 lbf                                  :(RT)    (DRILLING_SURFACE)      (6in)                   Surface Weight On Bit
CRPM            .c/min                                     :(RM)    (TELE675)               (6in)                   Collar Rotational Speed
RPM             .c/min                                     :(RT)    (DRILLING_SURFACE)      (6in)                   Rotational Speed
STICKNSLIP      .c/min                                     :(RM)    (TELE675)               (6in)                   Stick Slip Indicator
STOR            .1000 ft.lbf                               :(RT)    (DRILLING_SURFACE)      (6in)                   Surface Torque
SHKL            .                                          :(RM)    (ADN6C)                 (6in)                   Tool Shock Level
SHKL            .                                          :(RM)    (ARC6)                  (6in)                   Tool Shock Level
SHKL            .                                          :(RM)    (SONICVISION6)          (6in)                   Tool Shock Level
SHKRSK          .                                          :(RM)    (TELE675)               (6in)                   Shock Risk
SHOCKS_ACC      .                                          :(RM)    (TELE675)               (6in)                   Total Shocks accumulated over tool lifetime
VIB_LAT         .gn                                        :(RM)    (TELE675)               (6in)                   Transverse RMS Vibration
VIB_X           .gn                                        :(RM)    (TELE675)               (6in)                   RMS Vibration, X-Axis
TFLO            .gal/min                                   :(RT)    (DRILLING_SURFACE)      (6in)                   Total flow rate of all active pumps
SPPA            .psi                                       :(RT)    (DRILLING_SURFACE)      (6in)                   Standpipe Pressure
TRPM            .c/min                                     :(RM)    (TELE675)               (6in)                   MWD Turbine Rotation Speed
DHAP            .psi                                       :(RM)    (ARC6)                  (6in)                   Downhole Annulus Pressure
DHAT            .degC                                      :(RM)    (ARC6)                  (6in)                   Downhole Annulus Temperature
ECD             .g/cm3                                     :(RM)    (ARC6)                  (6in)                   Equivalent Circulating Density
#-------------------------------------------------------------
#            DEPT          TVD         ROP5           GR           BS         ADIA         DCAV         BLKP         HKLA         SWOB         CRPM          RPM   STICKNSLIP         STOR         SHKL         SHKL         SHKL       SHKRSK   SHOCKS_ACC      VIB_LAT        VIB_X         TFLO         SPPA         TRPM         DHAP         DHAT          ECD 
#                  (DnMWorkfl)  (DRILLING_)       (ARC6)   (Borehole)      (ADN6C)      (ADN6C)  (DRILLING_)  (DRILLING_)  (DRILLING_)    (TELE675)  (DRILLING_)    (TELE675)  (DRILLING_)      (ADN6C)       (ARC6)  (SONICVISI)    (TELE675)    (TELE675)    (TELE675)    (TELE675)  (DRILLING_)  (DRILLING_)    (TELE675)       (ARC6)       (ARC6)       (ARC6) 
#                         (RT)         (RT)         (RM)         (RT)         (RM)         (RM)         (RT)         (RT)         (RT)         (RM)         (RT)         (RM)         (RT)         (RM)         (RM)         (RM)         (RM)         (RM)         (RM)         (RM)         (RT)         (RT)         (RM)         (RM)         (RM)         (RM) 
#                        (6in)        (6in)        (6in)        (6in)        (6in)        (6in)        (6in)        (6in)        (6in)        (6in)        (6in)        (6in)        (6in)        (6in)        (6in)        (6in)        (6in)        (6in)        (6in)        (6in)        (6in)        (6in)        (6in)        (6in)        (6in)        (6in) 
~ASCII
# ...
       5398.77000   5396.58531     17.31324    134.04480      8.50000      8.51038      8.30234     25.53018    708.48943     16.74104    123.00000    157.00000    102.00000     15.10000      0.00000      0.00000      0.00000      0.00000      0.00000      0.24983      0.12492    681.44154   3781.22810   3771.00000  12254.99991    115.00000      1.59731
       5398.92240   5396.73771     18.54839    121.09460      8.50000      8.51656      8.31879     25.36238    703.15491     22.88094    140.75000    158.00000     50.00000     12.41000      0.00000      0.00000      0.00000      0.00000      0.00000      0.24983      0.12492    681.44154   3782.88298   3771.00000  12246.99963    115.00000      1.59623
       5399.07480   5396.89011     13.85655    112.20130      8.50000      8.52059      8.35244     25.23761    702.42650     21.99847    151.00000    148.00000     37.50000     11.18000      0.00000      0.00000      0.00000      0.00000      0.00000      0.24983      0.12492    681.44154   3762.10052   3768.50000  12256.00067    115.00000      1.59737
       5399.22720   5397.04251     12.53747    125.00390      8.50000      8.53666      8.35117     25.07430    705.24908     20.81181      -999.25    153.00000    222.00000     15.34000      0.00000      0.00000      0.00000      -999.25      -999.25      -999.25      -999.25    681.44154   3743.46897      -999.25  12238.00004    115.00000      1.59498
       5399.37960   5397.19491     14.26566    142.12330      8.50000      8.54254      8.35746     24.93359    706.94157     18.20972    156.00000    147.00000     93.00000     17.13000      0.00000      0.00000      0.00000      -999.25      -999.25      0.24983      0.12492    681.44154   3763.42326      -999.25  12254.99991    115.00000      1.59711
       5399.53200   5397.34731     14.29520    140.44480      8.50000      8.56188      8.34961     24.79171    706.56612     18.56912      -999.25    156.00000    141.00000     12.70000      0.00000      0.00000      0.00000      -999.25      -999.25      -999.25      -999.25    681.44154   3771.27706      -999.25  12221.00016    115.00000      1.59265
       5399.68440   5397.49971     12.10695    127.96070      8.50000      8.60215      8.36725     24.64086    704.68535     20.74963    146.33330    147.00000    109.50000     11.18000      0.00000      0.00000      0.00000      0.00000      0.00000      0.24983      0.12492    681.44154   3775.73407   3771.00000  12235.99997    115.00000      1.59456
       5399.83680   5397.65211     11.66722    114.42940      8.50000      8.61078      8.34915     24.46517    705.88291     19.31863    132.00000    151.00000     90.00000     11.15000      0.00000      0.00000      0.00000      0.00000      0.00000      0.24983      0.12492    681.44154   3762.68212   3769.00000  12241.00087    115.00000      1.59515
       5399.98920   5397.80451      8.85522     97.01178      8.50000      8.57745      8.33274     24.33537    704.91530     20.51757    143.66670    151.00000     21.75000      9.98000      0.00000      0.00000      0.00000      0.00000      0.00000      0.24983      0.12492    681.44154   3747.26896   3772.00000  12273.99985    115.00000      1.59940
       5400.14160   5397.95691      6.81959     85.42101      8.50000      8.59823      8.32005     24.18986    708.82630     16.66212    146.57140    150.00000     25.71428     11.19000      0.00000      0.00000      0.00000      0.00000      0.00000      0.24983      0.12492    681.44154   3747.14568   3772.75000  12235.00066    115.00000      1.59429
       5400.29400   5398.10931      6.80196     82.38454      8.50000      8.61496      8.31693     24.01393    699.76618     25.55885    141.81820    148.00000     20.72727     12.06000      0.00000      0.00000      0.00000      0.00000      0.00000      0.24983      0.12492    681.44154   3738.71028   3768.80000  12238.00004    115.00000      1.59464
       5400.44640   5398.26171      4.90863     84.01290      8.50000      8.59437      8.34246     23.85116    703.98891     21.24293    139.00000    149.00000     18.00000      9.70000      0.00000      0.00000      0.00000      0.00000      0.00000      0.24983      0.12492    681.44154   3741.87066   3773.00000  12242.00018    115.00000      1.59510
       5400.59880   5398.41411      4.68061     94.11921      8.50000      8.58176      8.36195     23.71254    703.83657     21.23585    145.00000    153.00000     42.00000     10.00000      0.00000      0.00000      0.00000      0.00000      0.00000      0.24983      0.12492    681.44154   3749.22842   3773.00000  12254.00060    114.00000      1.59664
       5400.75120   5398.56651      5.11214    111.14900      8.50000      8.58882      8.34958     23.55843    704.86371     20.85594    155.00000    154.00000     54.00000     16.26000      0.00000      0.00000      0.00000      0.00000      0.00000      0.24983      0.12492    681.44154   3753.34749   3769.00000  12241.00087    114.00000      1.59488
       5400.90360   5398.71891      5.02176    128.94980      8.50000      8.59274      8.33803     23.37229    706.38181     19.02919    127.50000    152.00000    100.00000     13.88000      0.00000      0.00000      0.00000      0.00000      0.00000      0.24983      0.12492    681.44154   3754.64268   3766.00000  12242.00018    115.00000      1.59500
       5401.05600   5398.87131      4.56773    136.61360      8.50000      8.61885      8.32438     23.26106    706.98500     18.68325    141.75000    152.00000     25.50000      9.71000      0.00000      0.00000      0.00000      0.00000      0.00000      0.24983      0.12492    681.44154   3742.30722   3776.50000  12227.00037    115.00000      1.59297
       5401.20840   5399.02371      4.81086    126.49120      8.50000      8.60456      8.32167     23.11857    707.40277     17.94396      -999.25    151.00000    108.00000     13.86000      0.00000      0.00000      0.00000      -999.25      -999.25      -999.25      -999.25    681.44154   3747.47782      -999.25  12217.00002    115.00000      1.59162
       5401.36080   5399.17611      4.90710    103.76090      8.50000      8.60920      8.31201     22.92956    701.86057     23.75410    144.66670    149.00000     52.00000     10.88000      0.00000      0.00000      0.00000      0.00000      0.00000      0.24983      0.12492    681.44154   3775.33231   3773.33300  12203.00098    115.00000      1.58976
       5401.51320   5399.32851      4.78695     79.77439      8.50000      8.59917      8.32007     22.79102    702.17473     23.22920    143.50000    148.00000     18.00000     11.48000      0.00000      0.00000      0.00000      -999.25      -999.25      0.24983      0.12492    681.44154   3741.64875      -999.25  12218.74192    115.00000      1.59177
       5401.66560   5399.48091      5.68537     64.46881      8.50000      8.55431      8.31333     22.64473    698.76352     26.69007    143.33330    150.00000     20.14286     10.56000      0.00000      0.00000      0.00000      0.00000      0.00000      0.24983      0.12492    681.44154   3745.27179   3771.50000  12235.00066    115.00000      1.59384
       5401.81800   5399.63331      4.78694     65.27966      8.50000      8.56293      8.30758     22.47012    701.58213     23.89000    145.00000    150.00000     16.50000     11.47000      0.00000      0.00000      0.00000      0.00000      0.00000      0.24983      0.12492    681.44154   3751.50116   3770.33300  12240.00011    115.00000      1.59446
       5401.97040   5399.78571      5.45385     82.08147      8.50000      8.57054      8.31468     22.31424    701.61939     23.55403    131.66670    155.00000     25.00000     12.68000      0.00000      0.00000      0.00000      0.00000      0.00000      0.24983      0.12492    681.44154   3753.01681   3770.00000  12256.99998    115.00000      1.59660
       5402.12280   5399.93811      6.26803     97.91530      8.50000      8.56921      8.30881     22.21594    701.36431     23.03568      -999.25    148.00000    117.00000     13.27000      0.00000      0.00000      0.00000      -999.25      -999.25      -999.25      -999.25    681.44154   3746.21164      -999.25  12256.99998    115.00000      1.59657
