~VERSION INFORMATION 
VERS  .    2.0                                     :CWLS Log ASCII Standard - VERSION 2.0
WRAP  .    NO                                      :One Line per Depth step
PROD  .    Schlumberger Technology Corp.           :LAS Producer
PROG  .    Horizon LASWriter 10.1.205256.3100      :LAS Program name and version
SOURCE.    Run8_8.5in-Drilling                     :Run&Pass Information
CREA  .    01/07/2021                              :LAS Creation date {MM/DD/YYYY}
#--------------------------------------------------
~WELL INFORMATION 
#MNEM           .UNIT                      DATA            :DESCRIPTION
#----            ------          --------------            -----------------------------
STRT            .m                   5149.90080            :START DEPTH
STOP            .m                   5618.07360            :STOP DEPTH
STEP            .m                       0.1524            :STEP
NULL            .                       -999.25            :NULL VALUE
COMP            .                BP Development Australia Pty Ltd:COMPANY
WELL            .                    Ironbark-1            :WELL NAME
FLD             .                      Ironbark            :FIELD NAME
RIGN            .                    Ocean Apex            :Rig Name
RIGTYP          .                Semi-Submersible          :Rig Type
SON             .                     20AWA0029            :Service Order Number
SRVC            .                  Schlumberger            :SERVICE COMPANY
DATE            .                    12/25/2020            :LOG DATE(Composite Date for Composite LAP) (MM/DD/YYYY)
CLAB            .                       County:            :County Label
CNTY            .                                          :COUNTY
SLAB            .                        State:            :State/Province Label
STAT            .                Western Australia         :STATE or PROVINCE
PROV            .                Western Australia         :STATE or PROVINCE
CTRY            .                     Australia            :COUNTRY
CONT_REGION     .                   Australasia            :Continent Region
SECT            .                                          :Section
TOWN            .                                          :Township
RANG            .                                          :Range
API             .                                          :API NUMBER
UWI             .                     20AWA0029            :UNIQUE WELL ID
LUL             .                 Portside Deck            :Logging Unit Location
LUN             .                       1010979            :Logging Unit Number
LOC             .                      WA-359-P            :FIELD LOCATION
FL1             .                Northing: 7,881,270.990 m :Field Location Line 1
FL2             .                Easting: 402,902.910 m    :Field Location Line 2
LATI            .deg             19° 9' 34.079" S          :LATITUDE
LONG            .deg             116° 4' 35.795" E         :LONGITUDE
PDAT            .                           MSL            :Local Permanent Datum
LMF             .                            DF            :Logging Measured From
APD             .m                     23.85000            :Elevation of Depth Reference (LMF) Above Permanent Datum
EPD             .m                      0.00000            :Elevation of Permanent Datum (PDAT) above Mean Sea Level
EKB             .m                      -999.25            :Elevation of Kelly Bushing Above Permanent Datum
EDF             .m                     23.85000            :Elevation of Drill Floor Above Permanent Datum
EGL             .m                   -300.95000            :Elevation of Ground Level Above Permanent Datum
ECF             .m                      -999.25            :Elevation of Casing Flange above Permanent Datum
#--------------------------------------------------
~CURVE INFORMATION
#MNEM           .UNIT                  API CODE            :DESCRIPTION
#----            ------          --------------            -----------------------------
DEPT            .m                                         :                                                        Depth Index
TVD             .m                                         :(RT)    (DnMWorkflow)           (6in)                   True Vertical Depth
ROP5            .m/h                                       :(RT)    (DRILLING_SURFACE)      (6in)                   Rate of penetration averaged over the last 5 ft (1.5 m)
GR              .gAPI                                      :(RM)    (ARC6)                  (6in)                   Gamma Ray
BS              .in                                        :(RT)    (Borehole)              (6in)                   Bit Size
ADIA            .in                                        :(RM)    (ADN6C)                 (6in)                   Average Borehole Diameter
DCAV            .in                                        :(RM)    (ADN6C)                 (6in)                   Density Caliper, Average - filtered if Orion compressed
BLKP            .m                                         :(RT)    (DRILLING_SURFACE)      (6in)                   Height of block above rig floor
HKLA            .1000 lbf                                  :(RT)    (DRILLING_SURFACE)      (6in)                   Average Hookload
SWOB            .1000 lbf                                  :(RT)    (DRILLING_SURFACE)      (6in)                   Surface Weight On Bit
CRPM            .c/min                                     :(RM)    (TELE675)               (6in)                   Collar Rotational Speed
RPM             .c/min                                     :(RT)    (DRILLING_SURFACE)      (6in)                   Rotational Speed
STICKNSLIP      .c/min                                     :(RM)    (TELE675)               (6in)                   Stick Slip Indicator
STOR            .1000 ft.lbf                               :(RT)    (DRILLING_SURFACE)      (6in)                   Surface Torque
SHKL            .                                          :(RM)    (ADN6C)                 (6in)                   Tool Shock Level
SHKL            .                                          :(RM)    (ARC6)                  (6in)                   Tool Shock Level
SHKL            .                                          :(RM)    (SONICVISION6)          (6in)                   Tool Shock Level
SHKRSK          .                                          :(RM)    (TELE675)               (6in)                   Shock Risk
SHOCKS_ACC      .                                          :(RM)    (TELE675)               (6in)                   Total Shocks accumulated over tool lifetime
VIB_LAT         .gn                                        :(RM)    (TELE675)               (6in)                   Transverse RMS Vibration
VIB_X           .gn                                        :(RM)    (TELE675)               (6in)                   RMS Vibration, X-Axis
TFLO            .gal/min                                   :(RT)    (DRILLING_SURFACE)      (6in)                   Total flow rate of all active pumps
SPPA            .psi                                       :(RT)    (DRILLING_SURFACE)      (6in)                   Standpipe Pressure
TRPM            .c/min                                     :(RM)    (TELE675)               (6in)                   MWD Turbine Rotation Speed
DHAP            .psi                                       :(RM)    (ARC6)                  (6in)                   Downhole Annulus Pressure
DHAT            .degC                                      :(RM)    (ARC6)                  (6in)                   Downhole Annulus Temperature
ECD             .g/cm3                                     :(RM)    (ARC6)                  (6in)                   Equivalent Circulating Density
#-------------------------------------------------------------
#            DEPT          TVD         ROP5           GR           BS         ADIA         DCAV         BLKP         HKLA         SWOB         CRPM          RPM   STICKNSLIP         STOR         SHKL         SHKL         SHKL       SHKRSK   SHOCKS_ACC      VIB_LAT        VIB_X         TFLO         SPPA         TRPM         DHAP         DHAT          ECD 
#                  (DnMWorkfl)  (DRILLING_)       (ARC6)   (Borehole)      (ADN6C)      (ADN6C)  (DRILLING_)  (DRILLING_)  (DRILLING_)    (TELE675)  (DRILLING_)    (TELE675)  (DRILLING_)      (ADN6C)       (ARC6)  (SONICVISI)    (TELE675)    (TELE675)    (TELE675)    (TELE675)  (DRILLING_)  (DRILLING_)    (TELE675)       (ARC6)       (ARC6)       (ARC6) 
#                         (RT)         (RT)         (RM)         (RT)         (RM)         (RM)         (RT)         (RT)         (RT)         (RM)         (RT)         (RM)         (RT)         (RM)         (RM)         (RM)         (RM)         (RM)         (RM)         (RM)         (RT)         (RT)         (RM)         (RM)         (RM)         (RM) 
#                        (6in)        (6in)        (6in)        (6in)        (6in)        (6in)        (6in)        (6in)        (6in)        (6in)        (6in)        (6in)        (6in)        (6in)        (6in)        (6in)        (6in)        (6in)        (6in)        (6in)        (6in)        (6in)        (6in)        (6in)        (6in)        (6in) 
~ASCII
# ...
       5244.54120   5242.35829     19.60619    147.38960      8.50000      8.58490      8.32792     11.79616    701.60704     25.61187      -999.25    158.00000    114.00000     12.69000      0.00000      0.00000      0.00000      -999.25      -999.25      -999.25      -999.25    646.36742   3359.20309      -999.25  11753.00109    103.00000      1.57695
       5244.69360   5242.51069     18.98201    146.19150      8.50000      8.58294      8.35831     11.65138    704.23738     23.10101    156.00000    147.00000    114.00000     17.13000      0.00000      0.00000      0.00000      0.00000      0.00000      0.24983      0.12492    646.36742   3347.70740   3557.00000  11740.99922    103.00000      1.57531
       5244.84600   5242.66309     23.26901    139.94280      8.50000      8.58382      8.33122     11.49095    701.74152     25.55995      -999.25    158.00000     66.00000     15.09000      0.00000      0.00000      0.00000      -999.25      -999.25      0.24983      0.12492    646.36742   3381.98707      -999.25  11764.90579    103.00000      1.57847
       5244.99840   5242.81549     22.70510    126.66490      8.50000      8.59353      8.35209     11.35314    699.73245     27.65785    162.00000    160.00000     51.00000     12.89000      0.00000      0.00000      0.00000      0.00000      0.00000      0.24983      0.12492    646.36742   3379.31547   3565.00000  11777.99980    104.00000      1.58017
       5245.15080   5242.96789     20.38446    115.67530      8.50000      8.58607      8.35759     11.19118    701.68597     25.68463    151.00000    156.00000     80.00000     16.04000      0.00000      0.00000      0.00000      0.00000      0.00000      0.24983      0.12492    646.36742   3335.59965   3568.00000  11765.14220    104.00000      1.57841
       5245.30320   5243.12029     17.39455    115.84290      8.50000      8.58647      8.34259     11.05951    702.51777     24.98966    162.50000    152.00000     87.00000     12.40000      0.00000      0.00000      0.00000      0.00000      0.00000      0.24983      0.12492    646.36742   3351.97586   3555.00000  11741.99998    104.00000      1.57525
       5245.45560   5243.27269     15.57161    125.20410      8.50000      8.59314      8.34603     10.89785    704.57204     22.59487    145.00000    149.00000     84.00000     15.15000      0.00000      0.00000      0.00000      0.00000      0.00000      0.24983      0.12492    646.36742   3335.29797   3556.00000  11736.87725    104.00000      1.57453
       5245.60800   5243.42509     15.72685    134.04310      8.50000      8.58529      8.34970     10.74217    702.18686     25.00408    159.00000    157.00000      -999.25     12.49000      0.00000      0.00000      0.00000      -999.25      -999.25      0.24983      0.12492    646.36742   3365.05826      -999.25  11770.00097    104.00000      1.57891
       5245.76040   5243.57749     15.66902    138.26880      8.50000      8.59118      8.36485     10.60030    701.28913     26.07855    147.00000    157.00000     51.00000     12.98000      0.00000      0.00000      0.00000      0.00000      0.00000      0.24983      0.12492    646.36742   3347.78427   3560.00000  11784.00001    104.00000      1.58076
       5245.91280   5243.72989     15.51695    143.77240      8.50000      8.59588      8.34256     10.45774    702.34228     25.01757    153.00000    158.00000     81.00000     13.88000      0.00000      0.00000      0.00000      -999.25      -999.25      0.24983      0.12492    646.36742   3367.73711      -999.25  11779.99987    104.00000      1.58018
       5246.06520   5243.88229     15.49289    154.63430      8.50000      8.58333      8.37245     10.28059    700.92405     26.57906    148.00000    152.00000     73.50000     15.64000      0.00000      0.00000      0.00000      0.00000      0.00000      0.24983      0.12492    646.36742   3355.00425   3574.00000  11801.99919    104.00000      1.58308
       5246.21760   5244.03469     15.06828    159.64690      8.50000      8.58647      8.30431     10.13213    706.43715     20.66203      -999.25    154.00000      -999.25     13.37000      0.00000      0.00000      0.00000      -999.25      -999.25      -999.25      -999.25    646.36742   3343.97993      -999.25  11778.99911    104.00000      1.57993
       5246.37000   5244.18709     15.31143    151.33720      8.50000      8.58804      8.32602      9.98136    704.39853     22.84351    167.00000    148.00000     93.00000     16.84000      0.00000      0.00000      0.00000      -999.25      -999.25      0.24983      0.00000    646.36742   3355.98905      -999.25  11795.99898    105.00000      1.58216
       5246.52240   5244.33949     15.76646    141.56450      8.50000      8.58490      8.33670      9.82431    701.30721     26.04651      -999.25    160.00000      -999.25     15.64000      0.00000      0.00000      0.00000      -999.25      -999.25      -999.25      -999.25    646.36742   3362.81163      -999.25  11807.00009    105.00000      1.58361
       5246.67480   5244.49189     17.36550    138.44130      8.50000      8.58490      8.34102      9.65337    701.39099     26.21237    150.00000    159.00000     75.00000     15.46000      0.00000      0.00000      0.00000      0.00000      0.00000      0.24983      0.12492    646.36742   3372.73511   3554.00000  11801.99919    105.00000      1.58290
       5246.82720   5244.64429     19.05514    140.67020      8.50000      8.58490      8.35735      9.51779    701.68398     25.68432    141.50000    157.00000     69.00000     13.56000      0.00000      0.00000      0.00000      0.00000      0.00000      0.24983      0.12492    646.36742   3348.61098   3569.00000  11797.99905    105.00000      1.58231
       5246.97960   5244.79669     22.20722    145.30530      8.50000      8.60451      8.34261      9.34739    701.23093     26.14630    144.00000    158.00000     75.00000     16.55000      0.00000      0.00000      0.00000      -999.25      -999.25      0.24983      0.12492    646.36742   3348.85465      -999.25  11811.00023    105.00000      1.58400
       5247.13200   5244.94909     19.34680    146.03400      8.50000      8.59118      8.34879      9.23941    705.50084     21.33546    149.00000    157.00000     81.00000     13.86000      0.00000      0.00000      0.00000      0.00000      0.00000      0.24983      0.12492    646.36742   3372.11000   3562.00000  11802.99995    105.00000      1.58288
       5247.28440   5245.10148     18.38489    137.19630      8.50000      8.58647      8.34375      9.06334    707.87081     20.32111      -999.25    156.00000     60.00000     15.06000      0.00000      0.00000      0.00000      -999.25      -999.25      0.24983      0.12492    646.36742   3353.85265      -999.25  11808.00085    105.00000      1.58352
       5247.43680   5245.25388     19.07860    122.41170      8.50000      8.59078      8.36320      8.93550    705.84609     21.90959    151.00000    153.00000     84.00000     10.56000      0.00000      0.00000      0.00000      0.00000      0.00000      0.24983      0.12492    646.36742   3325.09747   3574.00000  11805.00002    105.00000      1.58308
       5247.58920   5245.40628     17.96040    112.07750      8.50000      8.58961      8.40853      8.78060    702.13879     24.97846    152.00000    160.00000     84.00000     11.48000      0.00000      0.00000      0.00000      -999.25      -999.25      0.24983      0.12492    646.36742   3357.37126      -999.25  11814.99892    105.00000      1.58434
       5247.74160   5245.55868     19.97894    111.63830      8.50000      8.59745      8.40179      8.61641    699.16564     28.36855    150.00000    154.00000     48.00000     13.86000      0.00000      0.00000      0.00000      0.00000      0.00000      0.24983      0.12492    646.36742   3356.51264   3562.00000  11817.99975    105.00000      1.58471
       5247.89400   5245.71108     18.55364    118.89990      8.50000      8.58393      8.36310      8.49463    700.40243     27.03595    175.00000    159.00000     72.00000     11.37000      0.00000      0.00000      0.00000      -999.25      -999.25      0.24983      0.12492    646.36742   3344.93863      -999.25  11807.00009    105.00000      1.58319
