~VERSION INFORMATION 
VERS  .    2.0                                     :CWLS Log ASCII Standard - VERSION 2.0
WRAP  .    NO                                      :One Line per Depth step
PROD  .    Schlumberger Technology Corp.           :LAS Producer
PROG  .    Horizon LASWriter 10.1.205256.3100      :LAS Program name and version
SOURCE.    Run8_8.5in-Drilling                     :Run&Pass Information
CREA  .    01/07/2021                              :LAS Creation date {MM/DD/YYYY}
#--------------------------------------------------
~WELL INFORMATION 
#MNEM           .UNIT                      DATA            :DESCRIPTION
#----            ------          --------------            -----------------------------
STRT            .m                   5149.90080            :START DEPTH
STOP            .m                   5618.07360            :STOP DEPTH
STEP            .m                       0.1524            :STEP
NULL            .                       -999.25            :NULL VALUE
COMP            .                BP Development Australia Pty Ltd:COMPANY
WELL            .                    Ironbark-1            :WELL NAME
FLD             .                      Ironbark            :FIELD NAME
RIGN            .                    Ocean Apex            :Rig Name
RIGTYP          .                Semi-Submersible          :Rig Type
SON             .                     20AWA0029            :Service Order Number
SRVC            .                  Schlumberger            :SERVICE COMPANY
DATE            .                    12/25/2020            :LOG DATE(Composite Date for Composite LAP) (MM/DD/YYYY)
CLAB            .                       County:            :County Label
CNTY            .                                          :COUNTY
SLAB            .                        State:            :State/Province Label
STAT            .                Western Australia         :STATE or PROVINCE
PROV            .                Western Australia         :STATE or PROVINCE
CTRY            .                     Australia            :COUNTRY
CONT_REGION     .                   Australasia            :Continent Region
SECT            .                                          :Section
TOWN            .                                          :Township
RANG            .                                          :Range
API             .                                          :API NUMBER
UWI             .                     20AWA0029            :UNIQUE WELL ID
LUL             .                 Portside Deck            :Logging Unit Location
LUN             .                       1010979            :Logging Unit Number
LOC             .                      WA-359-P            :FIELD LOCATION
FL1             .                Northing: 7,881,270.990 m :Field Location Line 1
FL2             .                Easting: 402,902.910 m    :Field Location Line 2
LATI            .deg             19° 9' 34.079" S          :LATITUDE
LONG            .deg             116° 4' 35.795" E         :LONGITUDE
PDAT            .                           MSL            :Local Permanent Datum
LMF             .                            DF            :Logging Measured From
APD             .m                     23.85000            :Elevation of Depth Reference (LMF) Above Permanent Datum
EPD             .m                      0.00000            :Elevation of Permanent Datum (PDAT) above Mean Sea Level
EKB             .m                      -999.25            :Elevation of Kelly Bushing Above Permanent Datum
EDF             .m                     23.85000            :Elevation of Drill Floor Above Permanent Datum
EGL             .m                   -300.95000            :Elevation of Ground Level Above Permanent Datum
ECF             .m                      -999.25            :Elevation of Casing Flange above Permanent Datum
#--------------------------------------------------
~CURVE INFORMATION
#MNEM           .UNIT                  API CODE            :DESCRIPTION
#----            ------          --------------            -----------------------------
DEPT            .m                                         :                                                        Depth Index
TVD             .m                                         :(RT)    (DnMWorkflow)           (6in)                   True Vertical Depth
ROP5            .m/h                                       :(RT)    (DRILLING_SURFACE)      (6in)                   Rate of penetration averaged over the last 5 ft (1.5 m)
GR              .gAPI                                      :(RM)    (ARC6)                  (6in)                   Gamma Ray
BS              .in                                        :(RT)    (Borehole)              (6in)                   Bit Size
ADIA            .in                                        :(RM)    (ADN6C)                 (6in)                   Average Borehole Diameter
DCAV            .in                                        :(RM)    (ADN6C)                 (6in)                   Density Caliper, Average - filtered if Orion compressed
BLKP            .m                                         :(RT)    (DRILLING_SURFACE)      (6in)                   Height of block above rig floor
HKLA            .1000 lbf                                  :(RT)    (DRILLING_SURFACE)      (6in)                   Average Hookload
SWOB            .1000 lbf                                  :(RT)    (DRILLING_SURFACE)      (6in)                   Surface Weight On Bit
CRPM            .c/min                                     :(RM)    (TELE675)               (6in)                   Collar Rotational Speed
RPM             .c/min                                     :(RT)    (DRILLING_SURFACE)      (6in)                   Rotational Speed
STICKNSLIP      .c/min                                     :(RM)    (TELE675)               (6in)                   Stick Slip Indicator
STOR            .1000 ft.lbf                               :(RT)    (DRILLING_SURFACE)      (6in)                   Surface Torque
SHKL            .                                          :(RM)    (ADN6C)                 (6in)                   Tool Shock Level
SHKL            .                                          :(RM)    (ARC6)                  (6in)                   Tool Shock Level
SHKL            .                                          :(RM)    (SONICVISION6)          (6in)                   Tool Shock Level
SHKRSK          .                                          :(RM)    (TELE675)               (6in)                   Shock Risk
SHOCKS_ACC      .                                          :(RM)    (TELE675)               (6in)                   Total Shocks accumulated over tool lifetime
VIB_LAT         .gn                                        :(RM)    (TELE675)               (6in)                   Transverse RMS Vibration
VIB_X           .gn                                        :(RM)    (TELE675)               (6in)                   RMS Vibration, X-Axis
TFLO            .gal/min                                   :(RT)    (DRILLING_SURFACE)      (6in)                   Total flow rate of all active pumps
SPPA            .psi                                       :(RT)    (DRILLING_SURFACE)      (6in)                   Standpipe Pressure
TRPM            .c/min                                     :(RM)    (TELE675)               (6in)                   MWD Turbine Rotation Speed
DHAP            .psi                                       :(RM)    (ARC6)                  (6in)                   Downhole Annulus Pressure
DHAT            .degC                                      :(RM)    (ARC6)                  (6in)                   Downhole Annulus Temperature
ECD             .g/cm3                                     :(RM)    (ARC6)                  (6in)                   Equivalent Circulating Density
#-------------------------------------------------------------
#            DEPT          TVD         ROP5           GR           BS         ADIA         DCAV         BLKP         HKLA         SWOB         CRPM          RPM   STICKNSLIP         STOR         SHKL         SHKL         SHKL       SHKRSK   SHOCKS_ACC      VIB_LAT        VIB_X         TFLO         SPPA         TRPM         DHAP         DHAT          ECD 
#                  (DnMWorkfl)  (DRILLING_)       (ARC6)   (Borehole)      (ADN6C)      (ADN6C)  (DRILLING_)  (DRILLING_)  (DRILLING_)    (TELE675)  (DRILLING_)    (TELE675)  (DRILLING_)      (ADN6C)       (ARC6)  (SONICVISI)    (TELE675)    (TELE675)    (TELE675)    (TELE675)  (DRILLING_)  (DRILLING_)    (TELE675)       (ARC6)       (ARC6)       (ARC6) 
#                         (RT)         (RT)         (RM)         (RT)         (RM)         (RM)         (RT)         (RT)         (RT)         (RM)         (RT)         (RM)         (RT)         (RM)         (RM)         (RM)         (RM)         (RM)         (RM)         (RM)         (RT)         (RT)         (RM)         (RM)         (RM)         (RM) 
#                        (6in)        (6in)        (6in)        (6in)        (6in)        (6in)        (6in)        (6in)        (6in)        (6in)        (6in)        (6in)        (6in)        (6in)        (6in)        (6in)        (6in)        (6in)        (6in)        (6in)        (6in)        (6in)        (6in)        (6in)        (6in)        (6in) 
~ASCII
       5149.90080   5147.71845    363.04760    139.83070     12.25000      8.60851      9.97827     22.17362    726.17646     -7.92256      -999.25      -999.25      -999.25      -999.25      0.00000      0.00000      -999.25      -999.25      -999.25      -999.25      -999.25      -999.25   2478.39326      -999.25  11236.27805    107.00000      1.53537
       5150.05320   5147.87085    365.89540    141.57700     12.25000      8.60683      9.78155     22.01093    725.37375     -5.54208      -999.25      0.00000      -999.25      0.00000      0.00000      0.00000      0.00000      -999.25      -999.25      -999.25      -999.25    546.15535   2484.90690      -999.25  11228.92463    107.00000      1.53432
       5150.20560   5148.02325    368.29870    141.49760     12.25000      8.61056      9.83512     21.79732    722.63870     -5.20610      -999.25      -999.25      -999.25      -999.25      0.00000      0.00000      0.00000      -999.25      -999.25      -999.25      -999.25      -999.25   2495.32496      -999.25  11224.99991    107.00000      1.53376
       5150.35800   5148.17565    370.60490    139.59260     12.25000      8.61349      9.80798     21.69250    721.46187     -3.13933      -999.25      -999.25      -999.25      -999.25      0.00000      0.00000      -999.25      -999.25      -999.25      -999.25      -999.25      -999.25   2502.69143      -999.25  11224.66052    107.00000      1.53364
       5150.51040   5148.32805    373.38760    139.32800     12.25000      8.61627      9.62278     21.48180    721.44357     -3.03448      -999.25      0.00000      -999.25      0.00000      0.00000      0.00000      0.00000      -999.25      -999.25      -999.25      -999.25    546.15535   2499.73121      -999.25  11224.42846    107.00000      1.53357
       5150.66280   5148.48045    375.26860    140.70390     12.25000      8.61959      9.67043     21.37209    722.76458     -4.68571      -999.25      -999.25      -999.25      -999.25      0.00000      0.00000      0.00000      -999.25      -999.25      -999.25      -999.25      -999.25   2499.88785      -999.25  11224.19785    107.00000      1.53349
       5150.81520   5148.63284    377.58550    143.42900     12.25000      8.62273      9.93269     21.20581    722.29676     -4.78911      -999.25      -999.25      -999.25      -999.25      0.00000      0.00000      -999.25      -999.25      -999.25      -999.25      -999.25      -999.25   2494.93481      -999.25  11224.00060    107.00000      1.53342
       5150.96760   5148.78524    380.60390    147.50360     12.25000      8.62587     10.42760     21.14984    722.81529     -4.71558      -999.25      -999.25      -999.25      -999.25      0.00000      0.00000      0.00000      -999.25      -999.25      -999.25      -999.25      -999.25   2493.26398      -999.25  11231.76592    107.00000      1.53443
       5151.12000   5148.93764    384.40920    149.54090     12.25000      8.62803     10.53289     20.98127    723.27473     -5.14000      -999.25      0.00000      -999.25      0.00000      0.00000      0.00000      0.00000      -999.25      -999.25      -999.25      -999.25    546.15535   2492.82451      -999.25  11238.53483    107.00000      1.53531
       5151.27240   5149.09004    391.54580    147.76820     12.25000      8.62641     10.50157     20.80993    723.93744     -5.36332      -999.25      -999.25      -999.25      -999.25      0.00000      0.00000      -999.25      -999.25      -999.25      -999.25      -999.25      -999.25   2490.49231      -999.25  11245.30519    107.00000      1.53619
       5151.42480   5149.24244    399.77230    144.22280     12.25000      8.62517     10.63878     20.69442    724.84288     -6.51153      -999.25      -999.25      -999.25      -999.25      0.00000      0.00000      0.00000      -999.25      -999.25      -999.25      -999.25      -999.25   2487.34934      -999.25  11254.00021    107.00000      1.53732
       5151.57720   5149.39484    408.13700    139.72490     12.25000      8.62333     10.47599     20.52156    724.86360     -6.51361      0.00000      -999.25      -999.25      -999.25      0.00000      0.00000      0.00000      -999.25      -999.25      0.00000      0.00000      -999.25   2491.97749      -999.25  11252.35113    107.00000      1.53706
       5151.72960   5149.54724    413.14950    134.27460     12.25000      8.61392     10.34107     20.35076    723.88497     -5.46794      -999.25      0.00000      -999.25      0.00000      0.00000      0.00000      0.00000      -999.25      -999.25      -999.25      -999.25    546.15535   2493.21176      -999.25  11250.04648    107.00000      1.53670
       5151.88200   5149.69964    414.49110    130.30590     12.25000      8.60007     10.03260     20.17821    722.73901     -4.17792      -999.25      -999.25      -999.25      -999.25      0.00000      0.00000      0.00000      -999.25      -999.25      -999.25      -999.25      -999.25   2499.11480      -999.25  11247.74183    107.00000      1.53634
       5152.03440   5149.85204    412.21010    127.81880     12.25000      8.57862      9.91431     20.06552    723.43832     -5.25599      -999.25      -999.25      -999.25      -999.25      0.00000      0.00000      0.00000      -999.25      -999.25      -999.25      -999.25      -999.25   2500.06625      -999.25  11245.43718    107.00000      1.53598
       5152.18680   5150.00444    409.93100    126.31070     12.25000      8.59196      9.71444     19.83547    722.74805     -4.48643      -999.25      0.00000      -999.25      0.00000      0.00000      0.00000      0.00000      -999.25      -999.25      -999.25      -999.25    546.15535   2502.35784      -999.25  11243.99985    107.00000      1.53576
       5152.33920   5150.15684    407.27760    125.78150     12.25000      8.59587      9.56427     19.72278    722.86776     -4.89958      -999.25      -999.25      -999.25      -999.25      0.00000      0.00000      -999.25      -999.25      -999.25      -999.25      -999.25      -999.25   2500.87121      -999.25  11241.64444    107.00000      1.53537
       5152.49160   5150.30923    405.54330    125.35820     12.25000      8.60281      9.71915     19.61185    721.83930     -4.31618      -999.25      -999.25    129.00000      -999.25      0.00000      0.00000      0.00000      -999.25      -999.25      -999.25      -999.25      -999.25   2504.53921      -999.25  11239.93300    107.00000      1.53509
       5152.64400   5150.46163    404.88320    125.04070     12.25000      8.60920     10.06099     19.44885    721.55733     -3.66091      -999.25      -999.25      -999.25      -999.25      0.00000      0.00000      0.00000      -999.25      -999.25      -999.25      -999.25      -999.25   2504.53341      -999.25  11238.22010    107.00000      1.53481
       5152.79640   5150.61403    404.10210    123.55910     12.25000      8.60959      9.98618     19.28065    722.74364     -4.17213      -999.25      0.00000      -999.25      0.00000      0.00000      0.00000      0.00000      -999.25      -999.25      -999.25      -999.25    546.15535   2500.83060      -999.25  11237.00033    107.00000      1.53461
       5152.94880   5150.76643    405.40740    120.91330     12.25000      8.60999     10.37158     19.16987    723.25291     -4.44420      -999.25      -999.25      -999.25      -999.25      0.00000      0.00000      0.00000      -999.25      -999.25      -999.25      -999.25      -999.25   2499.73846      -999.25  11236.08369    107.00000      1.53443
       5153.10120   5150.91883    405.55210    121.52180     12.25000      8.60872     10.31202     18.93784    724.62418     -7.39452      -999.25      -999.25      -999.25      -999.25      0.00000      0.00000      0.00000      -999.25      -999.25      -999.25      -999.25      -999.25   2492.76940      -999.25  11235.37156    107.00000      1.53429
       5153.25360   5151.07123    406.37200    125.38470     12.25000      8.60764     10.17343     18.82148    725.69960     -7.81188      -999.25      -999.25      -999.25      -999.25      0.00000      0.00000      -999.25      -999.25      -999.25      -999.25      -999.25      -999.25   2486.83881      -999.25  11234.65797    107.00000      1.53415
