~VERSION INFORMATION 
VERS  .    2.0                                     :CWLS Log ASCII Standard - VERSION 2.0
WRAP  .    NO                                      :One Line per Depth step
PROD  .    Schlumberger Technology Corp.           :LAS Producer
PROG  .    Horizon LASWriter 10.1.205256.3100      :LAS Program name and version
SOURCE.    Run8_8.5in-Drilling                     :Run&Pass Information
CREA  .    01/07/2021                              :LAS Creation date {MM/DD/YYYY}
#--------------------------------------------------
~WELL INFORMATION 
#MNEM           .UNIT                      DATA            :DESCRIPTION
#----            ------          --------------            -----------------------------
STRT            .m                   5149.90080            :START DEPTH
STOP            .m                   5618.07360            :STOP DEPTH
STEP            .m                       0.1524            :STEP
NULL            .                       -999.25            :NULL VALUE
COMP            .                BP Development Australia Pty Ltd:COMPANY
WELL            .                    Ironbark-1            :WELL NAME
FLD             .                      Ironbark            :FIELD NAME
RIGN            .                    Ocean Apex            :Rig Name
RIGTYP          .                Semi-Submersible          :Rig Type
SON             .                     20AWA0029            :Service Order Number
SRVC            .                  Schlumberger            :SERVICE COMPANY
DATE            .                    12/25/2020            :LOG DATE(Composite Date for Composite LAP) (MM/DD/YYYY)
CLAB            .                       County:            :County Label
CNTY            .                                          :COUNTY
SLAB            .                        State:            :State/Province Label
STAT            .                Western Australia         :STATE or PROVINCE
PROV            .                Western Australia         :STATE or PROVINCE
CTRY            .                     Australia            :COUNTRY
CONT_REGION     .                   Australasia            :Continent Region
SECT            .                                          :Section
TOWN            .                                          :Township
RANG            .                                          :Range
API             .                                          :API NUMBER
UWI             .                     20AWA0029            :UNIQUE WELL ID
LUL             .                 Portside Deck            :Logging Unit Location
LUN             .                       1010979            :Logging Unit Number
LOC             .                      WA-359-P            :FIELD LOCATION
FL1             .                Northing: 7,881,270.990 m :Field Location Line 1
FL2             .                Easting: 402,902.910 m    :Field Location Line 2
LATI            .deg             19° 9' 34.079" S          :LATITUDE
LONG            .deg             116° 4' 35.795" E         :LONGITUDE
PDAT            .                           MSL            :Local Permanent Datum
LMF             .                            DF            :Logging Measured From
APD             .m                     23.85000            :Elevation of Depth Reference (LMF) Above Permanent Datum
EPD             .m                      0.00000            :Elevation of Permanent Datum (PDAT) above Mean Sea Level
EKB             .m                      -999.25            :Elevation of Kelly Bushing Above Permanent Datum
EDF             .m                     23.85000            :Elevation of Drill Floor Above Permanent Datum
EGL             .m                   -300.95000            :Elevation of Ground Level Above Permanent Datum
ECF             .m                      -999.25            :Elevation of Casing Flange above Permanent Datum
#--------------------------------------------------
~CURVE INFORMATION
#MNEM           .UNIT                  API CODE            :DESCRIPTION
#----            ------          --------------            -----------------------------
DEPT            .m                                         :                                                        Depth Index
TVD             .m                                         :(RT)    (DnMWorkflow)           (6in)                   True Vertical Depth
ROP5            .m/h                                       :(RT)    (DRILLING_SURFACE)      (6in)                   Rate of penetration averaged over the last 5 ft (1.5 m)
GR              .gAPI                                      :(RM)    (ARC6)                  (6in)                   Gamma Ray
BS              .in                                        :(RT)    (Borehole)              (6in)                   Bit Size
ADIA            .in                                        :(RM)    (ADN6C)                 (6in)                   Average Borehole Diameter
DCAV            .in                                        :(RM)    (ADN6C)                 (6in)                   Density Caliper, Average - filtered if Orion compressed
BLKP            .m                                         :(RT)    (DRILLING_SURFACE)      (6in)                   Height of block above rig floor
HKLA            .1000 lbf                                  :(RT)    (DRILLING_SURFACE)      (6in)                   Average Hookload
SWOB            .1000 lbf                                  :(RT)    (DRILLING_SURFACE)      (6in)                   Surface Weight On Bit
CRPM            .c/min                                     :(RM)    (TELE675)               (6in)                   Collar Rotational Speed
RPM             .c/min                                     :(RT)    (DRILLING_SURFACE)      (6in)                   Rotational Speed
STICKNSLIP      .c/min                                     :(RM)    (TELE675)               (6in)                   Stick Slip Indicator
STOR            .1000 ft.lbf                               :(RT)    (DRILLING_SURFACE)      (6in)                   Surface Torque
SHKL            .                                          :(RM)    (ADN6C)                 (6in)                   Tool Shock Level
SHKL            .                                          :(RM)    (ARC6)                  (6in)                   Tool Shock Level
SHKL            .                                          :(RM)    (SONICVISION6)          (6in)                   Tool Shock Level
SHKRSK          .                                          :(RM)    (TELE675)               (6in)                   Shock Risk
SHOCKS_ACC      .                                          :(RM)    (TELE675)               (6in)                   Total Shocks accumulated over tool lifetime
VIB_LAT         .gn                                        :(RM)    (TELE675)               (6in)                   Transverse RMS Vibration
VIB_X           .gn                                        :(RM)    (TELE675)               (6in)                   RMS Vibration, X-Axis
TFLO            .gal/min                                   :(RT)    (DRILLING_SURFACE)      (6in)                   Total flow rate of all active pumps
SPPA            .psi                                       :(RT)    (DRILLING_SURFACE)      (6in)                   Standpipe Pressure
TRPM            .c/min                                     :(RM)    (TELE675)               (6in)                   MWD Turbine Rotation Speed
DHAP            .psi                                       :(RM)    (ARC6)                  (6in)                   Downhole Annulus Pressure
DHAT            .degC                                      :(RM)    (ARC6)                  (6in)                   Downhole Annulus Temperature
ECD             .g/cm3                                     :(RM)    (ARC6)                  (6in)                   Equivalent Circulating Density
#-------------------------------------------------------------
#            DEPT          TVD         ROP5           GR           BS         ADIA         DCAV         BLKP         HKLA         SWOB         CRPM          RPM   STICKNSLIP         STOR         SHKL         SHKL         SHKL       SHKRSK   SHOCKS_ACC      VIB_LAT        VIB_X         TFLO         SPPA         TRPM         DHAP         DHAT          ECD 
#                  (DnMWorkfl)  (DRILLING_)       (ARC6)   (Borehole)      (ADN6C)      (ADN6C)  (DRILLING_)  (DRILLING_)  (DRILLING_)    (TELE675)  (DRILLING_)    (TELE675)  (DRILLING_)      (ADN6C)       (ARC6)  (SONICVISI)    (TELE675)    (TELE675)    (TELE675)    (TELE675)  (DRILLING_)  (DRILLING_)    (TELE675)       (ARC6)       (ARC6)       (ARC6) 
#                         (RT)         (RT)         (RM)         (RT)         (RM)         (RM)         (RT)         (RT)         (RT)         (RM)         (RT)         (RM)         (RT)         (RM)         (RM)         (RM)         (RM)         (RM)         (RM)         (RM)         (RT)         (RT)         (RM)         (RM)         (RM)         (RM) 
#                        (6in)        (6in)        (6in)        (6in)        (6in)        (6in)        (6in)        (6in)        (6in)        (6in)        (6in)        (6in)        (6in)        (6in)        (6in)        (6in)        (6in)        (6in)        (6in)        (6in)        (6in)        (6in)        (6in)        (6in)        (6in)        (6in) 
~ASCII
# ...
       5552.99880   5550.81374     10.70205     36.18197      8.50000      8.56974      8.34409      9.64877    708.15278     19.58683    142.33330    140.00000     67.50000     15.06000      0.00000      0.00000      0.00000      0.00000      0.00000      0.24983      0.24983    651.37797   3521.71642   3574.00000  12646.99920    115.00000      1.60259
       5553.15120   5550.96614      9.71448     35.33926      8.50000      8.58647      8.31452      9.52699    717.66441     10.76347    135.33330    146.00000     55.50000     11.16000      0.00000      0.00000      0.00000      0.00000      0.00000      0.24983      0.24983    651.37797   3524.03993   3581.00000  12654.00018    115.00000      1.60340
       5553.30360   5551.11854     10.46961     32.56369      8.50000      8.62859      8.30298      9.35675    716.71620     11.35264      -999.25    143.00000     45.00000     12.39000      0.00000      0.00000      0.00000      -999.25      -999.25      -999.25      -999.25    651.37797   3524.51710      -999.25  12641.99975    115.00000      1.60184
       5553.45600   5551.27094     10.74973     29.32748      8.50000      9.00069      8.29057      9.22162    711.76175     15.92043    140.50000    144.00000     30.00000     13.88000      0.00000      0.00000      0.00000      0.00000      0.00000      0.24983      0.24983    651.37797   3524.77237   3576.00000  12650.00004    115.00000      1.60283
       5553.60840   5551.42334     10.82040     27.55109      8.50000      8.83724      8.34161      9.09379    718.06962      9.92033    125.00000    139.00000     45.00000     12.09000      0.00000      0.00000      0.00000      0.00000      0.00000      0.24983      0.24983    651.37797   3520.21093   3578.00000  12650.00004    115.00000      1.60278
       5553.76080   5551.57574     11.01046     26.53589      8.50000      8.58856      8.39757      8.89724    713.66302     15.67195    136.00000    140.00000     24.00000     12.24000      0.00000      0.00000      0.00000      0.00000      0.00000      0.24983      0.24983    651.37797   3517.43636   3576.00000  12641.00044    115.00000      1.60159
       5553.91320   5551.72814     10.38908     27.70127      8.50000      8.58274      8.34192      8.79325    717.45563     10.38477    141.00000    138.00000     33.00000     12.99000      0.00000      0.00000      0.00000      0.00000      0.00000      0.24983      0.24983    651.37797   3518.97231   3574.00000  12641.99975    115.00000      1.60167
       5554.06560   5551.88054     10.15447     31.72890      8.50000      8.59823      8.31745      8.63359    718.03677     10.06114    139.50000    142.00000     42.00000     12.68000      0.00000      0.00000      0.00000      0.00000      0.00000      0.24983      0.24983    651.37797   3524.52871   3577.00000  12639.00037    115.00000      1.60124
       5554.21800   5552.03294     11.32708     33.68935      8.50000      8.67375      8.30494      8.46833    713.26905     14.58930      -999.25    142.00000     30.00000     12.68000      0.00000      0.00000      0.00000      -999.25      -999.25      -999.25      -999.25    651.37797   3523.64688      -999.25  12641.00044    115.00000      1.60145
       5554.37040   5552.18534     10.63343     31.13949      8.50000      8.84161      8.31591      8.34892    714.18110     16.78705    135.00000    143.00000     48.00000     11.82000      0.00000      0.00000      0.00000      0.00000      0.00000      0.24983      0.24983    646.36742   3525.37573   3579.00000  12654.00018    115.00000      1.60307
       5554.52280   5552.33774     10.68490     28.54573      8.50000      8.73463      8.35586      8.19632    708.69204     18.86621    134.00000    140.00000     45.00000     13.28000      0.00000      0.00000      0.00000      0.00000      0.00000      0.24983      0.24983    651.37797   3516.71117   3570.00000  12641.99975    115.00000      1.60150
       5554.67520   5552.49014     12.14740     27.70789      8.50000      8.97718      8.35719      8.05905    712.54594     15.37264    132.00000    139.00000     30.00000     13.27000      0.00000      0.00000      0.00000      0.00000      0.00000      0.24983      0.24983    646.36742   3516.74598   3567.00000  12643.99982    115.00000      1.60170
       5554.82760   5552.64254     11.65923     27.60545      8.50000      8.88339      8.34623      7.91503    714.95713     13.06011    140.00000    137.00000     39.00000     13.55000      0.00000      0.00000      0.00000      0.00000      0.00000      0.24983      0.31229    651.37797   3508.29173   3584.00000  12639.99968    116.00000      1.60115
       5554.98000   5552.79493     11.68634     28.51803      8.50000      8.75529      8.33969      7.74923    714.59139     13.26704      -999.25    141.00000     30.00000     14.18000      0.00000      0.00000      -999.25      -999.25      -999.25      -999.25      -999.25    651.37797   3521.31757      -999.25  12643.99982    116.00000      1.60162
       5555.13240   5552.94733     12.32003     29.48550      8.50000      8.88465      8.33874      7.59731    714.94082     13.17260    138.00000    138.00000     30.00000     12.98000      0.00000      0.00000      0.00000      0.00000      0.00000      0.24983      0.24983    646.36742   3518.23842   3573.00000  12639.99968    116.00000      1.60108
       5555.28480   5553.09973     12.21485     30.62336      8.50000      8.89727      8.33572      7.45897    711.50690     17.01066    130.00000    143.00000     33.00000     12.10000      0.00000      0.00000      0.00000      0.00000      0.00000      0.24983      0.24983    651.37797   3524.05153   3575.00000  12638.00106    116.00000      1.60077
       5555.43720   5553.25213     12.96365     32.41246      8.50000      8.83782      8.33516      7.30138    710.61358     16.93355    129.00000    137.00000     36.00000     15.08000      0.00000      0.00000      0.00000      -999.25      -999.25      0.24983      0.24983    651.37797   3510.28020      -999.25  12656.00025    116.00000      1.60300
       5555.58960   5553.40453     12.77054     33.75033      8.50000      8.77545      8.35613      7.15268    710.13099     17.46659    138.00000    143.00000     40.50000     11.82000      0.00000      0.00000      0.00000      0.00000      0.00000      0.24983      0.24983    651.37797   3526.56794   3579.00000  12645.99989    116.00000      1.60169
       5555.74200   5553.55693     10.64564     34.09083      8.50000      8.95191      8.35546      7.10449    713.17888     14.63475    134.50000    141.00000     27.00000     11.81000      0.00000      0.00000      0.00000      0.00000      0.00000      0.24983      0.24983    651.37797   3522.79115   3577.00000  12631.00009    116.00000      1.59974
       5555.89440   5553.70933     11.09928     32.84590      8.50000      8.89102      8.34581      6.95588    715.13681     12.71535    126.00000    136.00000     36.00000     14.62000      0.00000      0.00000      0.00000      0.00000      0.00000      0.24983      0.24983    651.37797   3516.62850   3570.00000  12662.99977    116.00000      1.60375
       5556.04680   5553.86173     11.07660     29.36988      8.50000      8.67699      8.36570      6.80665    714.65334     12.81088    136.00000    154.00000     96.00000     12.51000      0.00000      0.00000      0.00000      0.00000      0.00000      0.24983      0.24983    651.37797   3516.83010   3585.00000  12668.99998    116.00000      1.60447
       5556.19920   5554.01413     12.01710     25.76704      8.50000      8.67066      8.36754      6.65534    716.24882     10.30264    113.00000    139.00000     96.00000     12.68000      0.00000      0.00000      0.00000      -999.25      -999.25      0.24983      0.24983    651.37797   3510.63409      -999.25  12665.99915    117.00000      1.60406
       5556.35160   5554.16653     11.50503     24.34136      8.50000      8.66337      8.37035      6.50317    714.58257     13.12195    131.50000    140.00000     52.50000     13.27000      0.00000      0.00000      0.00000      0.00000      0.00000      0.24983      0.24983    651.37797   3526.57084   3582.00000  12652.00011    116.00000      1.60224
