~VERSION INFORMATION 
VERS  .    2.0                                     :CWLS Log ASCII Standard - VERSION 2.0
WRAP  .    NO                                      :One Line per Depth step
PROD  .    Schlumberger Technology Corp.           :LAS Producer
PROG  .    Horizon LASWriter 10.1.205256.3100      :LAS Program name and version
SOURCE.    Run8_8.5in-Drilling                     :Run&Pass Information
CREA  .    01/07/2021                              :LAS Creation date {MM/DD/YYYY}
#--------------------------------------------------
~WELL INFORMATION 
#MNEM           .UNIT                      DATA            :DESCRIPTION
#----            ------          --------------            -----------------------------
STRT            .m                   5149.90080            :START DEPTH
STOP            .m                   5618.07360            :STOP DEPTH
STEP            .m                       0.1524            :STEP
NULL            .                       -999.25            :NULL VALUE
COMP            .                BP Development Australia Pty Ltd:COMPANY
WELL            .                    Ironbark-1            :WELL NAME
FLD             .                      Ironbark            :FIELD NAME
RIGN            .                    Ocean Apex            :Rig Name
RIGTYP          .                Semi-Submersible          :Rig Type
SON             .                     20AWA0029            :Service Order Number
SRVC            .                  Schlumberger            :SERVICE COMPANY
DATE            .                    12/25/2020            :LOG DATE(Composite Date for Composite LAP) (MM/DD/YYYY)
CLAB            .                       County:            :County Label
CNTY            .                                          :COUNTY
SLAB            .                        State:            :State/Province Label
STAT            .                Western Australia         :STATE or PROVINCE
PROV            .                Western Australia         :STATE or PROVINCE
CTRY            .                     Australia            :COUNTRY
CONT_REGION     .                   Australasia            :Continent Region
SECT            .                                          :Section
TOWN            .                                          :Township
RANG            .                                          :Range
API             .                                          :API NUMBER
UWI             .                     20AWA0029            :UNIQUE WELL ID
LUL             .                 Portside Deck            :Logging Unit Location
LUN             .                       1010979            :Logging Unit Number
LOC             .                      WA-359-P            :FIELD LOCATION
FL1             .                Northing: 7,881,270.990 m :Field Location Line 1
FL2             .                Easting: 402,902.910 m    :Field Location Line 2
LATI            .deg             19° 9' 34.079" S          :LATITUDE
LONG            .deg             116° 4' 35.795" E         :LONGITUDE
PDAT            .                           MSL            :Local Permanent Datum
LMF             .                            DF            :Logging Measured From
APD             .m                     23.85000            :Elevation of Depth Reference (LMF) Above Permanent Datum
EPD             .m                      0.00000            :Elevation of Permanent Datum (PDAT) above Mean Sea Level
EKB             .m                      -999.25            :Elevation of Kelly Bushing Above Permanent Datum
EDF             .m                     23.85000            :Elevation of Drill Floor Above Permanent Datum
EGL             .m                   -300.95000            :Elevation of Ground Level Above Permanent Datum
ECF             .m                      -999.25            :Elevation of Casing Flange above Permanent Datum
#--------------------------------------------------
~CURVE INFORMATION
#MNEM           .UNIT                  API CODE            :DESCRIPTION
#----            ------          --------------            -----------------------------
DEPT            .m                                         :                                                        Depth Index
TVD             .m                                         :(RT)    (DnMWorkflow)           (6in)                   True Vertical Depth
ROP5            .m/h                                       :(RT)    (DRILLING_SURFACE)      (6in)                   Rate of penetration averaged over the last 5 ft (1.5 m)
GR              .gAPI                                      :(RM)    (ARC6)                  (6in)                   Gamma Ray
BS              .in                                        :(RT)    (Borehole)              (6in)                   Bit Size
ADIA            .in                                        :(RM)    (ADN6C)                 (6in)                   Average Borehole Diameter
DCAV            .in                                        :(RM)    (ADN6C)                 (6in)                   Density Caliper, Average - filtered if Orion compressed
BLKP            .m                                         :(RT)    (DRILLING_SURFACE)      (6in)                   Height of block above rig floor
HKLA            .1000 lbf                                  :(RT)    (DRILLING_SURFACE)      (6in)                   Average Hookload
SWOB            .1000 lbf                                  :(RT)    (DRILLING_SURFACE)      (6in)                   Surface Weight On Bit
CRPM            .c/min                                     :(RM)    (TELE675)               (6in)                   Collar Rotational Speed
RPM             .c/min                                     :(RT)    (DRILLING_SURFACE)      (6in)                   Rotational Speed
STICKNSLIP      .c/min                                     :(RM)    (TELE675)               (6in)                   Stick Slip Indicator
STOR            .1000 ft.lbf                               :(RT)    (DRILLING_SURFACE)      (6in)                   Surface Torque
SHKL            .                                          :(RM)    (ADN6C)                 (6in)                   Tool Shock Level
SHKL            .                                          :(RM)    (ARC6)                  (6in)                   Tool Shock Level
SHKL            .                                          :(RM)    (SONICVISION6)          (6in)                   Tool Shock Level
SHKRSK          .                                          :(RM)    (TELE675)               (6in)                   Shock Risk
SHOCKS_ACC      .                                          :(RM)    (TELE675)               (6in)                   Total Shocks accumulated over tool lifetime
VIB_LAT         .gn                                        :(RM)    (TELE675)               (6in)                   Transverse RMS Vibration
VIB_X           .gn                                        :(RM)    (TELE675)               (6in)                   RMS Vibration, X-Axis
TFLO            .gal/min                                   :(RT)    (DRILLING_SURFACE)      (6in)                   Total flow rate of all active pumps
SPPA            .psi                                       :(RT)    (DRILLING_SURFACE)      (6in)                   Standpipe Pressure
TRPM            .c/min                                     :(RM)    (TELE675)               (6in)                   MWD Turbine Rotation Speed
DHAP            .psi                                       :(RM)    (ARC6)                  (6in)                   Downhole Annulus Pressure
DHAT            .degC                                      :(RM)    (ARC6)                  (6in)                   Downhole Annulus Temperature
ECD             .g/cm3                                     :(RM)    (ARC6)                  (6in)                   Equivalent Circulating Density
#-------------------------------------------------------------
#            DEPT          TVD         ROP5           GR           BS         ADIA         DCAV         BLKP         HKLA         SWOB         CRPM          RPM   STICKNSLIP         STOR         SHKL         SHKL         SHKL       SHKRSK   SHOCKS_ACC      VIB_LAT        VIB_X         TFLO         SPPA         TRPM         DHAP         DHAT          ECD 
#                  (DnMWorkfl)  (DRILLING_)       (ARC6)   (Borehole)      (ADN6C)      (ADN6C)  (DRILLING_)  (DRILLING_)  (DRILLING_)    (TELE675)  (DRILLING_)    (TELE675)  (DRILLING_)      (ADN6C)       (ARC6)  (SONICVISI)    (TELE675)    (TELE675)    (TELE675)    (TELE675)  (DRILLING_)  (DRILLING_)    (TELE675)       (ARC6)       (ARC6)       (ARC6) 
#                         (RT)         (RT)         (RM)         (RT)         (RM)         (RM)         (RT)         (RT)         (RT)         (RM)         (RT)         (RM)         (RT)         (RM)         (RM)         (RM)         (RM)         (RM)         (RM)         (RM)         (RT)         (RT)         (RM)         (RM)         (RM)         (RM) 
#                        (6in)        (6in)        (6in)        (6in)        (6in)        (6in)        (6in)        (6in)        (6in)        (6in)        (6in)        (6in)        (6in)        (6in)        (6in)        (6in)        (6in)        (6in)        (6in)        (6in)        (6in)        (6in)        (6in)        (6in)        (6in)        (6in) 
~ASCII
# ...
       5181.44760   5179.26504     50.50831    144.72550     12.25000      8.69665     10.46051     19.13050    708.45636      2.66732      -999.25     79.00000      -999.25      7.61000      0.00000      0.00000      0.00000      -999.25      -999.25      -999.25      -999.25    711.50511   3942.20693      -999.25  11563.00021    100.00000      1.57040
       5181.60000   5179.41744     55.57615    144.76520     12.25000      8.67640     10.41113     18.97882    709.45969      1.60999     78.00000     80.00000      -999.25      7.89000      0.00000      0.00000      0.00000      -999.25      -999.25      0.24983      0.00000    711.50511   3948.42180      -999.25  11559.00007    100.00000      1.56979
       5181.75240   5179.56984     56.46459    143.42900     12.25000      8.69601     10.39029     18.82079    707.37808      3.56568      -999.25     79.00000    381.00000      8.22000      0.00000      0.00000      0.00000      -999.25      -999.25      -999.25      -999.25    711.50511   3943.47891      -999.25  11562.87402    100.00000      1.57027
       5181.90480   5179.72224     55.31306    139.22220     12.25000      8.65863     10.50069     18.66659    706.33573      5.31108      -999.25     81.00000      -999.25      8.52000      0.00000      0.00000      0.00000      -999.25      -999.25      -999.25      -999.25    711.50511   3946.85829      -999.25  11566.00104    100.00000      1.57066
       5182.05720   5179.87463     55.49999    137.44950     12.25000      8.69454     10.38284     18.51032    707.76279      3.46091      -999.25     80.00000      -999.25      8.81000      0.00000      0.00000      0.00000      -999.25      -999.25      -999.25      -999.25    711.50511   3948.01279      -999.25  11550.00047    100.00000      1.56843
       5182.20960   5180.02703     55.09445    136.65580     12.25000      8.73254     10.37875     18.37492    706.41929      5.01289     75.00000     80.00000      -999.25      8.23000      0.00000      0.00000      0.00000      0.00000      0.00000      0.24983      0.00000    711.50511   3947.20783   3882.00000  11559.99938    100.00000      1.56973
       5182.36200   5180.17943     55.97879    136.31180     12.25000      8.71572     10.31956     18.20045    708.42528      3.07543      -999.25     80.00000    381.00000      8.81000      0.00000      0.00000      0.00000      -999.25      -999.25      -999.25      -999.25    711.50511   3952.44660      -999.25  11564.41287    100.00000      1.57030
       5182.51440   5180.33183     59.92244    136.23250     12.25000      8.75027     10.33481     18.08478    706.53658      4.94781      -999.25     78.00000      -999.25      8.52000      0.00000      0.00000      0.00000      -999.25      -999.25      -999.25      -999.25    711.50511   3943.79074      -999.25  11570.85690    100.00000      1.57113
       5182.66680   5180.48423     65.59972    134.48620     12.25000      8.75929     10.46380     17.89266    707.67152      4.02126      -999.25     80.00000      -999.25      9.10000      0.00000      0.00000      0.00000      -999.25      -999.25      -999.25      -999.25    711.50511   3952.32912      -999.25  11576.99925    100.00000      1.57192
       5182.81920   5180.63663     74.23301    134.11580     12.25000      8.72332     10.51939     17.80886    705.23232      6.25744     69.00000     78.00000      -999.25      8.81000      0.00000      0.00000      0.00000      -999.25      -999.25      0.24983      0.00000    711.50511   3945.79662      -999.25  11568.06492    100.00000      1.57065
       5182.97160   5180.78903     73.99789    135.65040     12.25000      8.71627     10.27509     17.59977    706.22639      5.22790      -999.25     81.00000      -999.25      8.36000      0.00000      0.00000      0.00000      -999.25      -999.25      -999.25      -999.25    711.50511   3947.84020      -999.25  11555.99923    100.40370      1.56895
       5183.12400   5180.94143     75.98139    138.45490     12.25000      8.69626     10.18040     17.44510    704.56388      6.95067      -999.25     80.00000    381.00000      8.23000      0.00000      0.00000      0.00000      -999.25      -999.25      -999.25      -999.25    711.50511   3953.10362      -999.25  11559.05518    100.69540      1.56934
       5183.27640   5181.09383     76.25843    142.37070     12.25000      8.70751     10.24280     17.28020    704.76759      6.73631      -999.25     79.00000      -999.25      9.09000      0.00000      0.00000      0.00000      -999.25      -999.25      -999.25      -999.25    711.50511   3949.70683      -999.25  11564.26929    101.00000      1.57000
       5183.42880   5181.24623     76.95042    143.82590     12.25000      8.68326     10.39280     17.12660    705.54361      5.85150     82.00000     81.00000      -999.25      8.23000      0.00000      0.00000      0.00000      0.00000      0.00000      0.24983      0.00000    711.50511   3959.98856   3878.00000  11570.99904    101.00000      1.57085
       5183.58120   5181.39862     61.02029    144.61970     12.25000      8.68215     10.44361     16.96506    708.42153      2.93180      -999.25     81.00000     87.00000      7.89000      0.00000      0.00000      0.00000      -999.25      -999.25      -999.25      -999.25    711.50511   3942.52602      -999.25  11576.99780    101.00000      1.57164
       5183.73360   5181.55102     57.26804    145.81910     12.25000      8.69822     10.51244     16.84495    711.38520      0.08861     70.00000     80.00000    381.00000      8.23000      0.00000      0.00000      0.00000      -999.25      -999.25      0.24983      0.00000    706.49456   3939.03496      -999.25  11585.45640    101.00000      1.57274
       5183.88600   5181.70342     56.79056    147.01850     12.25000      8.68764     10.23670     16.69755    708.17770      3.38128      -999.25     79.00000      -999.25      7.61000      0.00000      0.00000      0.00000      -999.25      -999.25      -999.25      -999.25    706.49456   3940.55350      -999.25  11593.91500    101.00000      1.57384
       5184.03840   5181.85582     55.22971    152.73790     12.25000      8.70607     10.25796     16.52752    709.90326      2.30211     83.00000     81.00000      -999.25      7.72000      0.00000      0.00000      0.00000      0.00000      0.00000      0.24983      0.00000    711.50511   3944.64502   3886.00000  11600.00078    101.00000      1.57463
       5184.19080   5182.00822     52.39194    161.15590     12.25000      8.71306     10.18220     16.36857    710.04920      1.56283      -999.25     82.00000    300.00000      8.52000      0.00000      0.00000      0.00000      -999.25      -999.25      -999.25      -999.25    711.50511   3944.58990      -999.25  11559.99938    101.00000      1.56914
       5184.34320   5182.16062     49.90110    165.68030     12.25000      8.72294     10.23778     16.23394    712.46922     -1.01088      -999.25     76.00000      -999.25      9.10000      0.00000      0.00000      0.00000      -999.25      -999.25      -999.25      -999.25    711.50511   3939.87763      -999.25  11562.36349    101.00000      1.56942
       5184.49560   5182.31302     49.63701    162.13490     12.25000      8.72628      9.94402     16.10137    707.84304      2.83285     79.00000     79.00000      -999.25      7.78000      0.00000      0.00000      0.00000      -999.25      -999.25      0.24983      0.00000    711.50511   3944.18090      -999.25  11564.00097    101.00000      1.56961
       5184.64800   5182.46542     48.66602    155.34840     12.25000      8.80608      9.97316     15.90619    709.70925      1.56529      -999.25     80.00000      -999.25      8.81000      0.00000      0.00000      0.00000      -999.25      -999.25      -999.25      -999.25    711.50511   3945.72845      -999.25  11588.00036    101.00000      1.57279
       5184.80040   5182.61782     49.01455    151.86920     12.25000      8.71035     10.19839     15.78975    705.51385      6.69768      -999.25     81.00000    381.00000      7.60000      0.00000      0.00000      0.00000      -999.25      -999.25      -999.25      -999.25    711.50511   3943.32807      -999.25  11550.99978    101.00000      1.56772
