~VERSION INFORMATION 
VERS  .    2.0                                     :CWLS Log ASCII Standard - VERSION 2.0
WRAP  .    NO                                      :One Line per Depth step
PROD  .    Schlumberger Technology Corp.           :LAS Producer
PROG  .    Horizon LASWriter 10.1.205256.3100      :LAS Program name and version
SOURCE.    Run8_8.5in-Drilling                     :Run&Pass Information
CREA  .    01/07/2021                              :LAS Creation date {MM/DD/YYYY}
#--------------------------------------------------
~WELL INFORMATION 
#MNEM           .UNIT                      DATA            :DESCRIPTION
#----            ------          --------------            -----------------------------
STRT            .m                   5149.90080            :START DEPTH
STOP            .m                   5618.07360            :STOP DEPTH
STEP            .m                       0.1524            :STEP
NULL            .                       -999.25            :NULL VALUE
COMP            .                BP Development Australia Pty Ltd:COMPANY
WELL            .                    Ironbark-1            :WELL NAME
FLD             .                      Ironbark            :FIELD NAME
RIGN            .                    Ocean Apex            :Rig Name
RIGTYP          .                Semi-Submersible          :Rig Type
SON             .                     20AWA0029            :Service Order Number
SRVC            .                  Schlumberger            :SERVICE COMPANY
DATE            .                    12/25/2020            :LOG DATE(Composite Date for Composite LAP) (MM/DD/YYYY)
CLAB            .                       County:            :County Label
CNTY            .                                          :COUNTY
SLAB            .                        State:            :State/Province Label
STAT            .                Western Australia         :STATE or PROVINCE
PROV            .                Western Australia         :STATE or PROVINCE
CTRY            .                     Australia            :COUNTRY
CONT_REGION     .                   Australasia            :Continent Region
SECT            .                                          :Section
TOWN            .                                          :Township
RANG            .                                          :Range
API             .                                          :API NUMBER
UWI             .                     20AWA0029            :UNIQUE WELL ID
LUL             .                 Portside Deck            :Logging Unit Location
LUN             .                       1010979            :Logging Unit Number
LOC             .                      WA-359-P            :FIELD LOCATION
FL1             .                Northing: 7,881,270.990 m :Field Location Line 1
FL2             .                Easting: 402,902.910 m    :Field Location Line 2
LATI            .deg             19° 9' 34.079" S          :LATITUDE
LONG            .deg             116° 4' 35.795" E         :LONGITUDE
PDAT            .                           MSL            :Local Permanent Datum
LMF             .                            DF            :Logging Measured From
APD             .m                     23.85000            :Elevation of Depth Reference (LMF) Above Permanent Datum
EPD             .m                      0.00000            :Elevation of Permanent Datum (PDAT) above Mean Sea Level
EKB             .m                      -999.25            :Elevation of Kelly Bushing Above Permanent Datum
EDF             .m                     23.85000            :Elevation of Drill Floor Above Permanent Datum
EGL             .m                   -300.95000            :Elevation of Ground Level Above Permanent Datum
ECF             .m                      -999.25            :Elevation of Casing Flange above Permanent Datum
#--------------------------------------------------
~CURVE INFORMATION
#MNEM           .UNIT                  API CODE            :DESCRIPTION
#----            ------          --------------            -----------------------------
DEPT            .m                                         :                                                        Depth Index
TVD             .m                                         :(RT)    (DnMWorkflow)           (6in)                   True Vertical Depth
ROP5            .m/h                                       :(RT)    (DRILLING_SURFACE)      (6in)                   Rate of penetration averaged over the last 5 ft (1.5 m)
GR              .gAPI                                      :(RM)    (ARC6)                  (6in)                   Gamma Ray
BS              .in                                        :(RT)    (Borehole)              (6in)                   Bit Size
ADIA            .in                                        :(RM)    (ADN6C)                 (6in)                   Average Borehole Diameter
DCAV            .in                                        :(RM)    (ADN6C)                 (6in)                   Density Caliper, Average - filtered if Orion compressed
BLKP            .m                                         :(RT)    (DRILLING_SURFACE)      (6in)                   Height of block above rig floor
HKLA            .1000 lbf                                  :(RT)    (DRILLING_SURFACE)      (6in)                   Average Hookload
SWOB            .1000 lbf                                  :(RT)    (DRILLING_SURFACE)      (6in)                   Surface Weight On Bit
CRPM            .c/min                                     :(RM)    (TELE675)               (6in)                   Collar Rotational Speed
RPM             .c/min                                     :(RT)    (DRILLING_SURFACE)      (6in)                   Rotational Speed
STICKNSLIP      .c/min                                     :(RM)    (TELE675)               (6in)                   Stick Slip Indicator
STOR            .1000 ft.lbf                               :(RT)    (DRILLING_SURFACE)      (6in)                   Surface Torque
SHKL            .                                          :(RM)    (ADN6C)                 (6in)                   Tool Shock Level
SHKL            .                                          :(RM)    (ARC6)                  (6in)                   Tool Shock Level
SHKL            .                                          :(RM)    (SONICVISION6)          (6in)                   Tool Shock Level
SHKRSK          .                                          :(RM)    (TELE675)               (6in)                   Shock Risk
SHOCKS_ACC      .                                          :(RM)    (TELE675)               (6in)                   Total Shocks accumulated over tool lifetime
VIB_LAT         .gn                                        :(RM)    (TELE675)               (6in)                   Transverse RMS Vibration
VIB_X           .gn                                        :(RM)    (TELE675)               (6in)                   RMS Vibration, X-Axis
TFLO            .gal/min                                   :(RT)    (DRILLING_SURFACE)      (6in)                   Total flow rate of all active pumps
SPPA            .psi                                       :(RT)    (DRILLING_SURFACE)      (6in)                   Standpipe Pressure
TRPM            .c/min                                     :(RM)    (TELE675)               (6in)                   MWD Turbine Rotation Speed
DHAP            .psi                                       :(RM)    (ARC6)                  (6in)                   Downhole Annulus Pressure
DHAT            .degC                                      :(RM)    (ARC6)                  (6in)                   Downhole Annulus Temperature
ECD             .g/cm3                                     :(RM)    (ARC6)                  (6in)                   Equivalent Circulating Density
#-------------------------------------------------------------
#            DEPT          TVD         ROP5           GR           BS         ADIA         DCAV         BLKP         HKLA         SWOB         CRPM          RPM   STICKNSLIP         STOR         SHKL         SHKL         SHKL       SHKRSK   SHOCKS_ACC      VIB_LAT        VIB_X         TFLO         SPPA         TRPM         DHAP         DHAT          ECD 
#                  (DnMWorkfl)  (DRILLING_)       (ARC6)   (Borehole)      (ADN6C)      (ADN6C)  (DRILLING_)  (DRILLING_)  (DRILLING_)    (TELE675)  (DRILLING_)    (TELE675)  (DRILLING_)      (ADN6C)       (ARC6)  (SONICVISI)    (TELE675)    (TELE675)    (TELE675)    (TELE675)  (DRILLING_)  (DRILLING_)    (TELE675)       (ARC6)       (ARC6)       (ARC6) 
#                         (RT)         (RT)         (RM)         (RT)         (RM)         (RM)         (RT)         (RT)         (RT)         (RM)         (RT)         (RM)         (RT)         (RM)         (RM)         (RM)         (RM)         (RM)         (RM)         (RM)         (RT)         (RT)         (RM)         (RM)         (RM)         (RM) 
#                        (6in)        (6in)        (6in)        (6in)        (6in)        (6in)        (6in)        (6in)        (6in)        (6in)        (6in)        (6in)        (6in)        (6in)        (6in)        (6in)        (6in)        (6in)        (6in)        (6in)        (6in)        (6in)        (6in)        (6in)        (6in)        (6in) 
~ASCII
# ...
       5335.67640   5333.49238     19.05799    149.58980      8.50000      8.56693      8.37693      3.30774    699.92557     28.12607    124.00000    146.00000    120.00000     12.07000      0.00000      0.00000      0.00000      -999.25      -999.25      0.24983      0.12492    696.47346   3864.48991      -999.25  12105.99974    114.00000      1.59655
       5335.82880   5333.64478     23.44508    158.72190      8.50000      8.59431      8.36988      3.07875    695.63582     33.41910    138.00000    150.00000     99.00000     14.76000      0.00000      0.00000      0.00000      0.00000      0.00000      0.24983      0.12492    696.47346   3872.18561   3852.00000  12094.00077    114.00000      1.59492
       5335.98120   5333.79718     20.88520    171.12830      8.50000      8.56834      8.38787      2.98259    701.91723     26.68352    139.00000    150.00000     64.50000     12.98000      0.00000      0.00000      0.00000      0.00000      0.00000      0.24983      0.12492    696.47346   3859.91542   3855.00000  12107.00050    114.00000      1.59661
       5336.13360   5333.94957     18.14670    180.24130      8.50000      8.55117      8.34019      2.82714    698.49257     31.08066    143.00000    150.00000     60.00000     13.27000      0.00000      0.00000      0.00000      0.00000      0.00000      0.24983      0.12492    696.47346   3868.64524   3852.00000  12086.00049    114.00000      1.59377
       5336.28600   5334.10197     16.73323    181.04220      8.50000      8.54647      8.36094      2.65659    699.93924     29.20640    150.00000    157.00000     70.50000     12.39000      0.00000      0.00000      0.00000      -999.25      -999.25      0.24983      0.12492    696.47346   3863.97503      -999.25  12088.99987    114.00000      1.59416
       5336.43840   5334.25437     14.63486    174.35260      8.50000      8.57470      8.36453      2.48941    700.65420     27.88671    155.50000    148.00000    135.00000     13.55000      0.00000      0.00000      0.00000      0.00000      0.00000      0.24983      0.12492    696.47346   3855.24085   3848.00000  12101.00029    114.00000      1.59566
       5336.59080   5334.40676     14.39247    162.32470      8.50000      8.59538      8.36343      2.37254    691.83858     37.19207    144.55560    153.00000     50.14286     10.30000      0.00000      0.00000      0.00000      0.00000      0.00000      0.24983      0.12492    691.46291   3871.48073   3843.75000  12120.99954    114.00000      1.59825
       5336.74320   5334.55916      9.18104    151.05460      8.50000      8.59745      8.35230     30.16104    712.26441     17.32317      -999.25    155.00000     69.00000      9.21000      0.00000      0.00000      0.00000      -999.25      -999.25      -999.25      -999.25    706.49456   3992.27396      -999.25  12105.00043    114.00000      1.59609
       5336.89560   5334.71156      9.44136    146.54120      8.50000      8.57234      8.32904     29.97699    704.38288     25.72281    147.00000    155.00000     15.00000      9.88000      0.00000      0.00000      0.00000      0.00000      0.00000      0.24983      0.37475    706.49456   3993.85052   3927.00000  12082.99966    114.00000      1.59315
       5337.04800   5334.86396      9.62153    143.95850      8.50000      8.57720      8.35490     29.78067    699.03006     30.05516      -999.25    155.00000      -999.25      9.97000      0.00000      0.00000      0.00000      -999.25      -999.25      -999.25      -999.25    706.49456   3993.12388      -999.25  12086.00049    114.00000      1.59351
       5337.20040   5335.01635     10.02839    132.52350      8.50000      8.58804      8.31841     29.66955    695.98922     33.02304    148.00000    155.00000      -999.25     10.27000      0.00000      0.00000      0.00000      -999.25      -999.25      0.24983      0.74949    706.49456   4005.43323      -999.25  12082.00035    114.00000      1.59294
       5337.35280   5335.16875     10.06404    119.92500      8.50000      8.55978      8.33690     29.53366    691.18579     38.23587      -999.25    155.00000      -999.25     11.18000      0.00000      0.00000      0.00000      -999.25      -999.25      -999.25      -999.25    706.49456   3987.77489      -999.25  12080.00028    114.00000      1.59262
       5337.50520   5335.32115     11.09459    122.09830      8.50000      8.56530      8.35247     29.38037    687.94367     41.22669      -999.25    155.00000     24.00000     11.80000      0.00000      0.00000      0.00000      -999.25      -999.25      -999.25      -999.25    706.49456   4005.85384      -999.25  12069.99992    115.00000      1.59126
       5337.65760   5335.47355     12.45879    133.25000      8.50000      8.57157      8.35888     29.13988    686.07878     43.05747      -999.25    154.00000      -999.25     12.39000      0.00000      0.00000      0.00000      -999.25      -999.25      -999.25      -999.25    706.49456   4005.27949      -999.25  12097.99946    115.00000      1.59491
       5337.81000   5335.62594     13.65289    142.50650      8.50000      8.55392      8.32777     29.05253    683.65480     45.80888      -999.25    155.00000      -999.25     11.77000      0.00000      0.00000      0.00000      -999.25      -999.25      -999.25      -999.25    706.49456   4025.67180      -999.25  12099.99953    115.00000      1.59513
       5337.96240   5335.77834     15.66175    149.26780      8.50000      8.54647      8.31961     28.93244    680.20192     49.20347      -999.25    154.00000      -999.25     13.36000      0.00000      0.00000      0.00000      -999.25      -999.25      -999.25      -999.25    711.50511   4023.19456      -999.25  12114.99933    115.00000      1.59708
       5338.11480   5335.93074     17.37000    152.95820      8.50000      8.55666      8.30160     28.71702    681.68276     47.66756    140.00000    154.00000      -999.25     14.14000      0.00000      0.00000      0.00000      0.00000      0.00000      0.24983      0.12492    711.50511   4020.62449   3938.00000  12095.99939    115.00000      1.59451
       5338.26720   5336.08314     78.33266    152.40810      8.50000      8.50255      8.33093     28.65268    677.89081     51.39410      -999.25      -999.25      -999.25      -999.25      0.00000      0.00000      0.00000      -999.25      -999.25      -999.25      -999.25      -999.25   3998.09577      -999.25  12114.00002    115.00000      1.59685
       5338.41960   5336.23553     87.82790    150.80170      8.50000      8.55196      8.31106     28.34800    678.89656     50.33850    153.00000    162.00000     39.00000     18.40000      0.00000      0.00000      0.00000      0.00000      0.00000      0.24983      0.12492    706.49456   3972.33852   3837.00000  12118.00016    115.00000      1.59733
       5338.57200   5336.38793     38.06762    147.94440      8.50000      8.56529      8.31407     28.31610    704.24840     25.15624    132.00000    152.00000     93.00000     18.03000      0.00000      0.00000      0.00000      -999.25      -999.25      0.24983      0.12492    691.46291   3886.44717      -999.25  12111.00064    114.00000      1.59637
       5338.72440   5336.54033     39.25946    145.93600      8.50000      8.57039      8.31322     28.17891    701.15708     28.88025      -999.25    153.00000      -999.25     16.26000      0.00000      0.00000      0.00000      -999.25      -999.25      -999.25      -999.25    691.46291   3863.58778      -999.25  12111.99995    114.00000      1.59646
       5338.87680   5336.69273     38.48447    152.89320      8.50000      8.56372      8.31493     28.02676    699.10612     30.56381    129.00000    155.00000     93.00000     16.84000      0.00000      0.00000      0.00000      0.00000      0.00000      0.24983      0.12492    691.46291   3870.41615   3834.00000  12109.99988    114.00000      1.59615
       5339.02920   5336.84512     36.06370    163.72760      8.50000      8.59405      8.31722     27.84509    695.93829     33.51990      -999.25    161.00000      -999.25     13.57000      0.00000      0.00000      0.00000      -999.25      -999.25      -999.25      -999.25    691.46291   3898.27210      -999.25  12122.00030    114.00000      1.59765
