~VERSION INFORMATION 
VERS  .    2.0                                     :CWLS Log ASCII Standard - VERSION 2.0
WRAP  .    NO                                      :One Line per Depth step
PROD  .    Schlumberger Technology Corp.           :LAS Producer
PROG  .    Horizon LASWriter 10.1.205256.3100      :LAS Program name and version
SOURCE.    Run8_8.5in-Drilling                     :Run&Pass Information
CREA  .    01/07/2021                              :LAS Creation date {MM/DD/YYYY}
#--------------------------------------------------
~WELL INFORMATION 
#MNEM           .UNIT                      DATA            :DESCRIPTION
#----            ------          --------------            -----------------------------
STRT            .m                   5149.90080            :START DEPTH
STOP            .m                   5618.07360            :STOP DEPTH
STEP            .m                       0.1524            :STEP
NULL            .                       -999.25            :NULL VALUE
COMP            .                BP Development Australia Pty Ltd:COMPANY
WELL            .                    Ironbark-1            :WELL NAME
FLD             .                      Ironbark            :FIELD NAME
RIGN            .                    Ocean Apex            :Rig Name
RIGTYP          .                Semi-Submersible          :Rig Type
SON             .                     20AWA0029            :Service Order Number
SRVC            .                  Schlumberger            :SERVICE COMPANY
DATE            .                    12/25/2020            :LOG DATE(Composite Date for Composite LAP) (MM/DD/YYYY)
CLAB            .                       County:            :County Label
CNTY            .                                          :COUNTY
SLAB            .                        State:            :State/Province Label
STAT            .                Western Australia         :STATE or PROVINCE
PROV            .                Western Australia         :STATE or PROVINCE
CTRY            .                     Australia            :COUNTRY
CONT_REGION     .                   Australasia            :Continent Region
SECT            .                                          :Section
TOWN            .                                          :Township
RANG            .                                          :Range
API             .                                          :API NUMBER
UWI             .                     20AWA0029            :UNIQUE WELL ID
LUL             .                 Portside Deck            :Logging Unit Location
LUN             .                       1010979            :Logging Unit Number
LOC             .                      WA-359-P            :FIELD LOCATION
FL1             .                Northing: 7,881,270.990 m :Field Location Line 1
FL2             .                Easting: 402,902.910 m    :Field Location Line 2
LATI            .deg             19° 9' 34.079" S          :LATITUDE
LONG            .deg             116° 4' 35.795" E         :LONGITUDE
PDAT            .                           MSL            :Local Permanent Datum
LMF             .                            DF            :Logging Measured From
APD             .m                     23.85000            :Elevation of Depth Reference (LMF) Above Permanent Datum
EPD             .m                      0.00000            :Elevation of Permanent Datum (PDAT) above Mean Sea Level
EKB             .m                      -999.25            :Elevation of Kelly Bushing Above Permanent Datum
EDF             .m                     23.85000            :Elevation of Drill Floor Above Permanent Datum
EGL             .m                   -300.95000            :Elevation of Ground Level Above Permanent Datum
ECF             .m                      -999.25            :Elevation of Casing Flange above Permanent Datum
#--------------------------------------------------
~CURVE INFORMATION
#MNEM           .UNIT                  API CODE            :DESCRIPTION
#----            ------          --------------            -----------------------------
DEPT            .m                                         :                                                        Depth Index
TVD             .m                                         :(RT)    (DnMWorkflow)           (6in)                   True Vertical Depth
ROP5            .m/h                                       :(RT)    (DRILLING_SURFACE)      (6in)                   Rate of penetration averaged over the last 5 ft (1.5 m)
GR              .gAPI                                      :(RM)    (ARC6)                  (6in)                   Gamma Ray
BS              .in                                        :(RT)    (Borehole)              (6in)                   Bit Size
ADIA            .in                                        :(RM)    (ADN6C)                 (6in)                   Average Borehole Diameter
DCAV            .in                                        :(RM)    (ADN6C)                 (6in)                   Density Caliper, Average - filtered if Orion compressed
BLKP            .m                                         :(RT)    (DRILLING_SURFACE)      (6in)                   Height of block above rig floor
HKLA            .1000 lbf                                  :(RT)    (DRILLING_SURFACE)      (6in)                   Average Hookload
SWOB            .1000 lbf                                  :(RT)    (DRILLING_SURFACE)      (6in)                   Surface Weight On Bit
CRPM            .c/min                                     :(RM)    (TELE675)               (6in)                   Collar Rotational Speed
RPM             .c/min                                     :(RT)    (DRILLING_SURFACE)      (6in)                   Rotational Speed
STICKNSLIP      .c/min                                     :(RM)    (TELE675)               (6in)                   Stick Slip Indicator
STOR            .1000 ft.lbf                               :(RT)    (DRILLING_SURFACE)      (6in)                   Surface Torque
SHKL            .                                          :(RM)    (ADN6C)                 (6in)                   Tool Shock Level
SHKL            .                                          :(RM)    (ARC6)                  (6in)                   Tool Shock Level
SHKL            .                                          :(RM)    (SONICVISION6)          (6in)                   Tool Shock Level
SHKRSK          .                                          :(RM)    (TELE675)               (6in)                   Shock Risk
SHOCKS_ACC      .                                          :(RM)    (TELE675)               (6in)                   Total Shocks accumulated over tool lifetime
VIB_LAT         .gn                                        :(RM)    (TELE675)               (6in)                   Transverse RMS Vibration
VIB_X           .gn                                        :(RM)    (TELE675)               (6in)                   RMS Vibration, X-Axis
TFLO            .gal/min                                   :(RT)    (DRILLING_SURFACE)      (6in)                   Total flow rate of all active pumps
SPPA            .psi                                       :(RT)    (DRILLING_SURFACE)      (6in)                   Standpipe Pressure
TRPM            .c/min                                     :(RM)    (TELE675)               (6in)                   MWD Turbine Rotation Speed
DHAP            .psi                                       :(RM)    (ARC6)                  (6in)                   Downhole Annulus Pressure
DHAT            .degC                                      :(RM)    (ARC6)                  (6in)                   Downhole Annulus Temperature
ECD             .g/cm3                                     :(RM)    (ARC6)                  (6in)                   Equivalent Circulating Density
#-------------------------------------------------------------
#            DEPT          TVD         ROP5           GR           BS         ADIA         DCAV         BLKP         HKLA         SWOB         CRPM          RPM   STICKNSLIP         STOR         SHKL         SHKL         SHKL       SHKRSK   SHOCKS_ACC      VIB_LAT        VIB_X         TFLO         SPPA         TRPM         DHAP         DHAT          ECD 
#                  (DnMWorkfl)  (DRILLING_)       (ARC6)   (Borehole)      (ADN6C)      (ADN6C)  (DRILLING_)  (DRILLING_)  (DRILLING_)    (TELE675)  (DRILLING_)    (TELE675)  (DRILLING_)      (ADN6C)       (ARC6)  (SONICVISI)    (TELE675)    (TELE675)    (TELE675)    (TELE675)  (DRILLING_)  (DRILLING_)    (TELE675)       (ARC6)       (ARC6)       (ARC6) 
#                         (RT)         (RT)         (RM)         (RT)         (RM)         (RM)         (RT)         (RT)         (RT)         (RM)         (RT)         (RM)         (RT)         (RM)         (RM)         (RM)         (RM)         (RM)         (RM)         (RM)         (RT)         (RT)         (RM)         (RM)         (RM)         (RM) 
#                        (6in)        (6in)        (6in)        (6in)        (6in)        (6in)        (6in)        (6in)        (6in)        (6in)        (6in)        (6in)        (6in)        (6in)        (6in)        (6in)        (6in)        (6in)        (6in)        (6in)        (6in)        (6in)        (6in)        (6in)        (6in)        (6in) 
~ASCII
# ...
       5521.45200   5519.26705     13.85148     60.41785      8.50000      8.58331      8.31609     12.55682    698.68768     28.90792    134.00000    141.00000     96.00000     13.30000      0.00000      0.00000      0.00000      0.00000      0.00000      0.24983      0.12492    651.37797   3490.88285   3573.00000  12540.99982    113.00000      1.59822
       5521.60440   5519.41945     12.51771     57.85734      8.50000      8.56659      8.30747     12.38911    701.80964     25.53584    137.66670    143.00000     54.00000     12.70000      0.00000      0.00000      0.00000      0.00000      0.00000      0.24983      0.12492    651.37797   3487.03355   3576.00000  12534.00030    113.00000      1.59729
       5521.75680   5519.57185     12.23552     56.75923      8.50000      8.56779      8.29352     12.24908    701.56317     25.78509    135.00000    139.00000    111.00000     13.56000      0.00000      0.00000      0.00000      0.00000      0.00000      0.24983      0.12492    651.37797   3511.09241   3580.00000  12538.99975    113.00000      1.59788
       5521.90920   5519.72425     12.78156     64.96763      8.50000      8.58856      8.31168     12.08742    701.11100     26.37727    144.00000    142.00000    111.00000     14.75000      0.00000      0.00000      0.00000      -999.25      -999.25      0.24983      0.12492    646.36742   3484.19661      -999.25  12534.00030    114.00000      1.59719
       5522.06160   5519.87665     12.79420     72.24025      8.50000      8.60607      8.30039     11.96204    698.43613     28.88060    122.00000    147.00000      -999.25     14.47000      0.00000      0.00000      0.00000      0.00000      0.00000      0.24983      0.12492    646.36742   3497.33558   3580.00000  12542.00058    114.00000      1.59820
       5522.21400   5520.02905     12.73244     71.31189      8.50000      8.59391      8.31005     11.77001    696.37701     31.18688    138.16670    146.00000     39.85714     15.34000      0.00000      0.00000      0.00000      0.00000      0.00000      0.24983      0.12492    651.37797   3509.36501   3574.00000  12530.99947    114.00000      1.59675
       5522.36640   5520.18145      9.60180     67.27528      8.50000      8.55274      8.29687     11.61449    704.63465     22.66628    129.00000    145.00000     24.00000     12.68000      0.00000      0.00000      0.00000      -999.25      -999.25      0.24983      0.12492    651.37797   3494.72055      -999.25  12538.00044    114.00000      1.59758
       5522.51880   5520.33385      9.47579     64.00781      8.50000      8.56254      8.30851     11.45628    702.19678     25.12560    134.33330    141.00000     23.00000     12.98000      0.00000      0.00000      0.00000      0.00000      0.00000      0.24983      0.12492    646.36742   3489.08873   3571.50000  12559.00046    114.00000      1.60020
       5522.67120   5520.48625      8.63920     62.19615      8.50000      8.55762      8.31499     11.30874    703.82467     23.45615    136.00000    142.00000     21.00000     12.40000      0.00000      0.00000      0.00000      0.00000      0.00000      0.24983      0.12492    651.37797   3488.85958   3574.00000  12559.00046    114.00000      1.60017
       5522.82360   5520.63865      8.54834     58.60879      8.50000      8.57283      8.32617     11.14800    699.96790     27.53679    131.00000    143.00000     30.00000     14.18000      0.00000      0.00000      0.00000      -999.25      -999.25      0.24983      0.12492    651.37797   3496.76413      -999.25  12563.00060    114.00000      1.60063
       5522.97600   5520.79105      9.31685     53.83967      8.50000      8.53696      8.30338     11.00138    700.45667     27.16053    141.00000    145.00000      -999.25     14.21000      0.00000      0.00000      0.00000      0.00000      0.00000      0.24983      0.12492    651.37797   3496.48421   3576.00000  12563.00060    114.00000      1.60060
       5523.12840   5520.94345      9.70177     54.09192      8.50000      8.56056      8.30988     10.85276    702.61940     24.87725    135.50000    144.00000     33.00000     11.82000      0.00000      0.00000      0.00000      0.00000      0.00000      0.24983      0.12492    651.37797   3508.63982   3570.00000  12568.00005    114.00000      1.60118
       5523.28080   5521.09585      9.81899     57.89687      8.50000      8.58411      8.29415     10.65046    703.54005     23.59550    140.00000    137.00000     42.00000     15.68000      0.00000      0.00000      0.00000      -999.25      -999.25      0.24983      0.12492    651.37797   3503.79121      -999.25  12574.99957    115.00000      1.60203
       5523.43320   5521.24825      9.83420     63.60110      8.50000      8.60059      8.30562     10.52837    699.40793     27.83733    132.00000    141.00000     48.00000     14.19000      0.00000      0.00000      0.00000      0.00000      0.00000      0.24983      0.12492    651.37797   3503.22411   3574.00000  12568.00005    115.00000      1.60108
       5523.58560   5521.40065      9.35159     72.81016      8.50000      8.61235      8.32561     10.39056    699.76971     27.54026    134.50000    142.00000     39.00000     13.56000      0.00000      0.00000      0.00000      -999.25      -999.25      0.24983      0.12492    651.37797   3499.69534      -999.25  12580.00047    115.00000      1.60259
       5523.73800   5521.55305      9.04285     79.04631      8.50000      8.58307      8.32328     10.23757    700.55764     26.54721    136.00000    143.00000     30.00000     15.17000      0.00000      0.00000      0.00000      0.00000      0.00000      0.24983      0.12492    651.37797   3485.58897   3571.66700  12572.00019    115.00000      1.60150
       5523.89040   5521.70545     10.28164     75.94032      8.50000      8.59157      8.33069     10.07323    701.95449     25.50693    127.00000    135.00000     55.50000     15.95000      0.00000      0.00000      0.00000      -999.25      -999.25      0.24983      0.12492    651.37797   3500.25954      -999.25  12576.99964    115.00000      1.60210
       5524.04280   5521.85784     10.66526     64.84371      8.50000      8.58961      8.33717      9.91127    701.95780     25.41352    146.00000    144.00000     48.00000     13.32000      0.00000      0.00000      0.00000      0.00000      0.00000      0.24983      0.12492    651.37797   3501.60984   3579.00000  12574.99957    115.00000      1.60181
       5524.19520   5522.01024     12.16049     55.74152      8.50000      8.58281      8.32295      9.74808    698.77101     28.57674    136.50000    140.00000     48.00000     16.27000      0.00000      0.00000      0.00000      0.00000      0.00000      0.24983      0.12492    651.37797   3513.74370   3573.00000  12538.00044    115.00000      1.59705
       5524.34760   5522.16264     11.48621     57.31422      8.50000      8.57575      8.31061      9.59378    702.91041     24.40557    130.00000    149.00000     51.00000     14.67000      0.00000      0.00000      0.00000      -999.25      -999.25      0.24983      0.12492    651.37797   3518.50964      -999.25  12553.99956    115.00000      1.59903
       5524.50000   5522.31504     11.20637     58.54702      8.50000      8.58265      8.31048      9.46280    702.06714     25.33566    134.00000    146.00000     81.00000     11.91000      0.00000      0.00000      0.00000      0.00000      0.00000      0.24983      0.12492    651.37797   3501.59244   3576.00000  12547.99935    115.00000      1.59823
       5524.65240   5522.46744     12.02656     52.89394      8.50000      8.59509      8.30916      9.28704    701.11850     26.32957    142.00000    142.00000      -999.25     14.91000      0.00000      0.00000      0.00000      -999.25      -999.25      0.24983      0.12492    651.37797   3512.14538      -999.25  12553.00025    115.00000      1.59882
       5524.80480   5522.61984     12.15265     52.14786      8.50000      8.59274      8.29379      9.13719    699.09134     28.24596    143.00000    140.00000     81.00000     16.27000      0.00000      0.00000      0.00000      0.00000      0.00000      0.24983      0.12492    651.37797   3504.20602   3582.00000  12546.00073    115.00000      1.59790
