~VERSION INFORMATION 
VERS  .    2.0                                     :CWLS Log ASCII Standard - VERSION 2.0
WRAP  .    NO                                      :One Line per Depth step
PROD  .    Schlumberger Technology Corp.           :LAS Producer
PROG  .    Horizon LASWriter 10.1.205256.3100      :LAS Program name and version
SOURCE.    Run8_8.5in-Drilling                     :Run&Pass Information
CREA  .    01/07/2021                              :LAS Creation date {MM/DD/YYYY}
#--------------------------------------------------
~WELL INFORMATION 
#MNEM           .UNIT                      DATA            :DESCRIPTION
#----            ------          --------------            -----------------------------
STRT            .m                   5149.90080            :START DEPTH
STOP            .m                   5618.07360            :STOP DEPTH
STEP            .m                       0.1524            :STEP
NULL            .                       -999.25            :NULL VALUE
COMP            .                BP Development Australia Pty Ltd:COMPANY
WELL            .                    Ironbark-1            :WELL NAME
FLD             .                      Ironbark            :FIELD NAME
RIGN            .                    Ocean Apex            :Rig Name
RIGTYP          .                Semi-Submersible          :Rig Type
SON             .                     20AWA0029            :Service Order Number
SRVC            .                  Schlumberger            :SERVICE COMPANY
DATE            .                    12/25/2020            :LOG DATE(Composite Date for Composite LAP) (MM/DD/YYYY)
CLAB            .                       County:            :County Label
CNTY            .                                          :COUNTY
SLAB            .                        State:            :State/Province Label
STAT            .                Western Australia         :STATE or PROVINCE
PROV            .                Western Australia         :STATE or PROVINCE
CTRY            .                     Australia            :COUNTRY
CONT_REGION     .                   Australasia            :Continent Region
SECT            .                                          :Section
TOWN            .                                          :Township
RANG            .                                          :Range
API             .                                          :API NUMBER
UWI             .                     20AWA0029            :UNIQUE WELL ID
LUL             .                 Portside Deck            :Logging Unit Location
LUN             .                       1010979            :Logging Unit Number
LOC             .                      WA-359-P            :FIELD LOCATION
FL1             .                Northing: 7,881,270.990 m :Field Location Line 1
FL2             .                Easting: 402,902.910 m    :Field Location Line 2
LATI            .deg             19° 9' 34.079" S          :LATITUDE
LONG            .deg             116° 4' 35.795" E         :LONGITUDE
PDAT            .                           MSL            :Local Permanent Datum
LMF             .                            DF            :Logging Measured From
APD             .m                     23.85000            :Elevation of Depth Reference (LMF) Above Permanent Datum
EPD             .m                      0.00000            :Elevation of Permanent Datum (PDAT) above Mean Sea Level
EKB             .m                      -999.25            :Elevation of Kelly Bushing Above Permanent Datum
EDF             .m                     23.85000            :Elevation of Drill Floor Above Permanent Datum
EGL             .m                   -300.95000            :Elevation of Ground Level Above Permanent Datum
ECF             .m                      -999.25            :Elevation of Casing Flange above Permanent Datum
#--------------------------------------------------
~CURVE INFORMATION
#MNEM           .UNIT                  API CODE            :DESCRIPTION
#----            ------          --------------            -----------------------------
DEPT            .m                                         :                                                        Depth Index
TVD             .m                                         :(RT)    (DnMWorkflow)           (6in)                   True Vertical Depth
ROP5            .m/h                                       :(RT)    (DRILLING_SURFACE)      (6in)                   Rate of penetration averaged over the last 5 ft (1.5 m)
GR              .gAPI                                      :(RM)    (ARC6)                  (6in)                   Gamma Ray
BS              .in                                        :(RT)    (Borehole)              (6in)                   Bit Size
ADIA            .in                                        :(RM)    (ADN6C)                 (6in)                   Average Borehole Diameter
DCAV            .in                                        :(RM)    (ADN6C)                 (6in)                   Density Caliper, Average - filtered if Orion compressed
BLKP            .m                                         :(RT)    (DRILLING_SURFACE)      (6in)                   Height of block above rig floor
HKLA            .1000 lbf                                  :(RT)    (DRILLING_SURFACE)      (6in)                   Average Hookload
SWOB            .1000 lbf                                  :(RT)    (DRILLING_SURFACE)      (6in)                   Surface Weight On Bit
CRPM            .c/min                                     :(RM)    (TELE675)               (6in)                   Collar Rotational Speed
RPM             .c/min                                     :(RT)    (DRILLING_SURFACE)      (6in)                   Rotational Speed
STICKNSLIP      .c/min                                     :(RM)    (TELE675)               (6in)                   Stick Slip Indicator
STOR            .1000 ft.lbf                               :(RT)    (DRILLING_SURFACE)      (6in)                   Surface Torque
SHKL            .                                          :(RM)    (ADN6C)                 (6in)                   Tool Shock Level
SHKL            .                                          :(RM)    (ARC6)                  (6in)                   Tool Shock Level
SHKL            .                                          :(RM)    (SONICVISION6)          (6in)                   Tool Shock Level
SHKRSK          .                                          :(RM)    (TELE675)               (6in)                   Shock Risk
SHOCKS_ACC      .                                          :(RM)    (TELE675)               (6in)                   Total Shocks accumulated over tool lifetime
VIB_LAT         .gn                                        :(RM)    (TELE675)               (6in)                   Transverse RMS Vibration
VIB_X           .gn                                        :(RM)    (TELE675)               (6in)                   RMS Vibration, X-Axis
TFLO            .gal/min                                   :(RT)    (DRILLING_SURFACE)      (6in)                   Total flow rate of all active pumps
SPPA            .psi                                       :(RT)    (DRILLING_SURFACE)      (6in)                   Standpipe Pressure
TRPM            .c/min                                     :(RM)    (TELE675)               (6in)                   MWD Turbine Rotation Speed
DHAP            .psi                                       :(RM)    (ARC6)                  (6in)                   Downhole Annulus Pressure
DHAT            .degC                                      :(RM)    (ARC6)                  (6in)                   Downhole Annulus Temperature
ECD             .g/cm3                                     :(RM)    (ARC6)                  (6in)                   Equivalent Circulating Density
#-------------------------------------------------------------
#            DEPT          TVD         ROP5           GR           BS         ADIA         DCAV         BLKP         HKLA         SWOB         CRPM          RPM   STICKNSLIP         STOR         SHKL         SHKL         SHKL       SHKRSK   SHOCKS_ACC      VIB_LAT        VIB_X         TFLO         SPPA         TRPM         DHAP         DHAT          ECD 
#                  (DnMWorkfl)  (DRILLING_)       (ARC6)   (Borehole)      (ADN6C)      (ADN6C)  (DRILLING_)  (DRILLING_)  (DRILLING_)    (TELE675)  (DRILLING_)    (TELE675)  (DRILLING_)      (ADN6C)       (ARC6)  (SONICVISI)    (TELE675)    (TELE675)    (TELE675)    (TELE675)  (DRILLING_)  (DRILLING_)    (TELE675)       (ARC6)       (ARC6)       (ARC6) 
#                         (RT)         (RT)         (RM)         (RT)         (RM)         (RM)         (RT)         (RT)         (RT)         (RM)         (RT)         (RM)         (RT)         (RM)         (RM)         (RM)         (RM)         (RM)         (RM)         (RM)         (RT)         (RT)         (RM)         (RM)         (RM)         (RM) 
#                        (6in)        (6in)        (6in)        (6in)        (6in)        (6in)        (6in)        (6in)        (6in)        (6in)        (6in)        (6in)        (6in)        (6in)        (6in)        (6in)        (6in)        (6in)        (6in)        (6in)        (6in)        (6in)        (6in)        (6in)        (6in)        (6in) 
~ASCII
# ...
       5212.99440   5210.81165     10.40367     30.24946      8.50000      8.53704      8.31751     15.19095    704.85974     24.78787    108.50000    124.00000     87.00000      8.36000      0.00000      0.00000      0.00000      0.00000      0.00000      0.24983      0.12492    641.35687   3345.43901   3559.00000  11570.99904    106.00000      1.56193
       5213.14680   5210.96405      9.12299     27.70417      8.50000      8.53626      8.31655     14.99233    714.16457     15.82313    104.00000    125.00000    117.00000     14.19000      0.00000      0.00000      0.00000      0.00000      0.00000      0.24983      0.12492    641.35687   3321.91389   3551.00000  11590.99974    106.00000      1.56459
       5213.29920   5211.11645      8.44917     28.42587      8.50000      8.54607      8.31381     14.86656    708.65941     21.15870    118.66670    128.00000    141.75000     10.91000      0.00000      0.00000      0.00000      0.00000      0.00000      0.24983      0.12492    641.35687   3323.96762   3555.50000  11572.99911    106.00000      1.56212
       5213.45160   5211.26885      8.02075     28.42911      8.50000      8.51353      8.30773     14.71503    708.51037     21.39409     97.00000    118.00000     54.00000     10.57000      0.00000      0.00000      0.00000      -999.25      -999.25      0.24983      0.12492    641.35687   3331.84172      -999.25  11584.00022    106.00000      1.56355
       5213.60400   5211.42124      8.59621     27.14483      8.50000      8.51560      8.29054     14.58711    706.53459     23.45699    116.50000    125.00000     69.00000      8.55000      0.00000      0.00000      0.00000      0.00000      0.00000      0.24983      0.12492    646.36742   3314.09490   3555.00000  11585.00098    106.00000      1.56364
       5213.75640   5211.57364      7.84535     26.69865      8.50000      8.51469      8.30917     14.42791    707.52579     22.43982     98.50000    126.00000    306.00000     10.90000      0.00000      0.00000      0.00000      0.00000      0.00000      0.24983      0.12492    641.35687   3325.96914   3547.00000  11569.00042    106.00000      1.56143
       5213.90880   5211.72604      8.72819     27.65538      8.50000      8.51431      8.31000     14.26388    705.76827     24.04092    117.00000    121.00000    105.00000     10.89000      0.00000      0.00000      0.00000      0.00000      0.00000      0.24983      0.12492    641.35687   3334.37553   3556.00000  11585.00098    106.00000      1.56357
       5214.06120   5211.87844      9.01843     29.10648      8.50000      8.53548      8.31638     14.11020    705.68912     24.30771    127.00000    120.00000    264.00000     12.37000      0.00000      0.00000      0.00000      0.00000      0.00000      0.24983      0.12492    646.36742   3327.70379   3552.00000  11585.00098    106.00000      1.56350
       5214.21360   5212.03084      8.07051     30.19237      8.50000      8.52346      8.31327     13.95858    707.93453     21.89739    135.50000    117.00000    123.00000     12.08000      0.00000      0.00000      0.00000      0.00000      0.00000      0.24983      0.12492    641.35687   3324.47670   3553.00000  11584.00022    106.00000      1.56332
       5214.36600   5212.18324      8.31172     29.36455      8.50000      8.54631      8.32019     13.80429    704.01118     25.90630    122.50000    121.00000     87.00000     10.31000      0.00000      0.00000      0.00000      0.00000      0.00000      0.24983      0.12492    641.35687   3341.11688   3549.00000  11588.00036    106.00000      1.56381
       5214.51840   5212.33564      8.34518     26.43782      8.50000      8.55104      8.31298     13.63957    707.52799     22.44471     97.00000    126.00000     58.00000     10.66000      0.00000      0.00000      0.00000      0.00000      0.00000      0.24983      0.24983    641.35687   3348.17297   3554.00000  11588.99967    106.00000      1.56391
       5214.67080   5212.48804      9.26790     24.30799      8.50000      8.53233      8.33289     13.48382    706.40628     23.09093    114.50000    132.00000     54.00000     13.87000      0.00000      0.00000      0.00000      0.00000      0.00000      0.24983      0.18737    641.35687   3340.70643   3558.00000  11592.99981    106.00000      1.56441
       5214.82320   5212.64044      9.41265     23.13651      8.50000      8.54411      8.33471     13.32975    706.45743     20.43271    114.50000    119.00000    197.00000      9.98000      0.00000      0.00000      0.00000      0.00000      0.00000      0.24983      0.12492    641.35687   3311.52773   3553.00000  11592.99981    106.00000      1.56436
       5214.97560   5212.79284      9.40929     28.24044      8.50000      8.52554      8.31423     13.17730    706.68318     23.69676     91.50000    132.00000     48.00000      8.25000      0.00000      0.00000      0.00000      0.00000      0.00000      0.24983      0.18737    641.35687   3329.22814   3549.00000  11590.99974    106.00000      1.56405
       5215.12800   5212.94524      9.51179     73.34045      8.50000      8.54319      8.31488     13.04010    704.17895     25.72920      -999.25    126.00000     63.00000      9.99000      0.00000      0.00000      0.00000      -999.25      -999.25      -999.25      -999.25    641.35687   3336.34804      -999.25  11600.00078    106.00000      1.56521
       5215.28040   5213.09764     11.29416    146.65490      8.50000      8.55378      8.31369     12.85230    702.10352     27.99675    111.66670    124.00000     66.00000     15.70000      0.00000      0.00000      0.00000      0.00000      0.00000      0.24983      0.20819    641.35687   3333.72576   3557.00000  11574.99918    106.00000      1.56178
       5215.43280   5213.25003      9.51801    180.30690      8.50000      8.56607      8.30820     12.68174    706.91643     23.37008    126.50000    112.00000    196.00000     16.55000      0.00000      0.00000      0.00000      0.00000      0.00000      0.24983      0.12492    641.35687   3340.97330   3537.00000  11591.99905    106.00000      1.56405
       5215.58520   5213.40243      9.44043    173.82580      8.50000      8.56803      8.29749     12.56058    706.59941     23.37098    116.33330    126.00000    235.50000     12.99000      0.00000      0.00000      0.00000      0.00000      0.00000      0.24983      0.04164    641.35687   3319.20458   3546.00000  11584.00022    106.00000      1.56291
       5215.73760   5213.55483      9.76999    163.73620      8.50000      8.54646      8.29709     12.39386    709.05227     20.96614    124.00000    129.00000     60.00000      9.42000      0.00000      0.00000      0.00000      0.00000      0.00000      0.24983      0.00000    641.35687   3339.36483   3552.00000  11579.00077    106.00000      1.56220
       5215.89000   5213.70723      9.95965    153.75470      8.50000      8.58098      8.29503     12.25920    706.67657     23.17519    116.00000    122.00000     84.00000     11.82000      0.00000      0.00000      0.00000      0.00000      0.00000      0.24983      0.12492    641.35687   3329.94898   3553.00000  11589.99898    104.00000      1.56363
       5216.04240   5213.85963      9.20077    142.39940      8.50000      8.57078      8.31550     12.09793    710.73616     19.13538    120.50000    122.00000     84.00000     12.41000      0.00000      0.00000      0.00000      0.00000      0.00000      0.24983      0.00000    641.35687   3329.94898   3550.00000  11582.00015    104.00000      1.56250
       5216.19480   5214.01203      8.99004    132.89060      8.50000      8.56111      8.34954     11.94609    708.79962     21.59293    108.00000    116.00000     60.00000     12.41000      0.00000      0.00000      0.00000      0.00000      0.00000      0.24983      0.00000    641.35687   3344.99519   3555.00000  11575.99994    104.00000      1.56165
       5216.34720   5214.16443      9.56008    120.10710      8.50000      8.58097      8.34848     11.76932    708.08709     21.68238    118.50000    118.00000     87.00000     13.56000      0.00000      0.00000      0.00000      0.00000      0.00000      0.24983      0.00000    641.35687   3335.76209   3556.00000  11579.00077    104.00000      1.56201
