~VERSION INFORMATION 
VERS  .    2.0                                     :CWLS Log ASCII Standard - VERSION 2.0
WRAP  .    NO                                      :One Line per Depth step
PROD  .    Schlumberger Technology Corp.           :LAS Producer
PROG  .    Horizon LASWriter 10.1.205256.3100      :LAS Program name and version
SOURCE.    Run8_8.5in-Drilling                     :Run&Pass Information
CREA  .    01/07/2021                              :LAS Creation date {MM/DD/YYYY}
#--------------------------------------------------
~WELL INFORMATION 
#MNEM           .UNIT                      DATA            :DESCRIPTION
#----            ------          --------------            -----------------------------
STRT            .m                   5149.90080            :START DEPTH
STOP            .m                   5618.07360            :STOP DEPTH
STEP            .m                       0.1524            :STEP
NULL            .                       -999.25            :NULL VALUE
COMP            .                BP Development Australia Pty Ltd:COMPANY
WELL            .                    Ironbark-1            :WELL NAME
FLD             .                      Ironbark            :FIELD NAME
RIGN            .                    Ocean Apex            :Rig Name
RIGTYP          .                Semi-Submersible          :Rig Type
SON             .                     20AWA0029            :Service Order Number
SRVC            .                  Schlumberger            :SERVICE COMPANY
DATE            .                    12/25/2020            :LOG DATE(Composite Date for Composite LAP) (MM/DD/YYYY)
CLAB            .                       County:            :County Label
CNTY            .                                          :COUNTY
SLAB            .                        State:            :State/Province Label
STAT            .                Western Australia         :STATE or PROVINCE
PROV            .                Western Australia         :STATE or PROVINCE
CTRY            .                     Australia            :COUNTRY
CONT_REGION     .                   Australasia            :Continent Region
SECT            .                                          :Section
TOWN            .                                          :Township
RANG            .                                          :Range
API             .                                          :API NUMBER
UWI             .                     20AWA0029            :UNIQUE WELL ID
LUL             .                 Portside Deck            :Logging Unit Location
LUN             .                       1010979            :Logging Unit Number
LOC             .                      WA-359-P            :FIELD LOCATION
FL1             .                Northing: 7,881,270.990 m :Field Location Line 1
FL2             .                Easting: 402,902.910 m    :Field Location Line 2
LATI            .deg             19° 9' 34.079" S          :LATITUDE
LONG            .deg             116° 4' 35.795" E         :LONGITUDE
PDAT            .                           MSL            :Local Permanent Datum
LMF             .                            DF            :Logging Measured From
APD             .m                     23.85000            :Elevation of Depth Reference (LMF) Above Permanent Datum
EPD             .m                      0.00000            :Elevation of Permanent Datum (PDAT) above Mean Sea Level
EKB             .m                      -999.25            :Elevation of Kelly Bushing Above Permanent Datum
EDF             .m                     23.85000            :Elevation of Drill Floor Above Permanent Datum
EGL             .m                   -300.95000            :Elevation of Ground Level Above Permanent Datum
ECF             .m                      -999.25            :Elevation of Casing Flange above Permanent Datum
#--------------------------------------------------
~CURVE INFORMATION
#MNEM           .UNIT                  API CODE            :DESCRIPTION
#----            ------          --------------            -----------------------------
DEPT            .m                                         :                                                        Depth Index
TVD             .m                                         :(RT)    (DnMWorkflow)           (6in)                   True Vertical Depth
ROP5            .m/h                                       :(RT)    (DRILLING_SURFACE)      (6in)                   Rate of penetration averaged over the last 5 ft (1.5 m)
GR              .gAPI                                      :(RM)    (ARC6)                  (6in)                   Gamma Ray
BS              .in                                        :(RT)    (Borehole)              (6in)                   Bit Size
ADIA            .in                                        :(RM)    (ADN6C)                 (6in)                   Average Borehole Diameter
DCAV            .in                                        :(RM)    (ADN6C)                 (6in)                   Density Caliper, Average - filtered if Orion compressed
BLKP            .m                                         :(RT)    (DRILLING_SURFACE)      (6in)                   Height of block above rig floor
HKLA            .1000 lbf                                  :(RT)    (DRILLING_SURFACE)      (6in)                   Average Hookload
SWOB            .1000 lbf                                  :(RT)    (DRILLING_SURFACE)      (6in)                   Surface Weight On Bit
CRPM            .c/min                                     :(RM)    (TELE675)               (6in)                   Collar Rotational Speed
RPM             .c/min                                     :(RT)    (DRILLING_SURFACE)      (6in)                   Rotational Speed
STICKNSLIP      .c/min                                     :(RM)    (TELE675)               (6in)                   Stick Slip Indicator
STOR            .1000 ft.lbf                               :(RT)    (DRILLING_SURFACE)      (6in)                   Surface Torque
SHKL            .                                          :(RM)    (ADN6C)                 (6in)                   Tool Shock Level
SHKL            .                                          :(RM)    (ARC6)                  (6in)                   Tool Shock Level
SHKL            .                                          :(RM)    (SONICVISION6)          (6in)                   Tool Shock Level
SHKRSK          .                                          :(RM)    (TELE675)               (6in)                   Shock Risk
SHOCKS_ACC      .                                          :(RM)    (TELE675)               (6in)                   Total Shocks accumulated over tool lifetime
VIB_LAT         .gn                                        :(RM)    (TELE675)               (6in)                   Transverse RMS Vibration
VIB_X           .gn                                        :(RM)    (TELE675)               (6in)                   RMS Vibration, X-Axis
TFLO            .gal/min                                   :(RT)    (DRILLING_SURFACE)      (6in)                   Total flow rate of all active pumps
SPPA            .psi                                       :(RT)    (DRILLING_SURFACE)      (6in)                   Standpipe Pressure
TRPM            .c/min                                     :(RM)    (TELE675)               (6in)                   MWD Turbine Rotation Speed
DHAP            .psi                                       :(RM)    (ARC6)                  (6in)                   Downhole Annulus Pressure
DHAT            .degC                                      :(RM)    (ARC6)                  (6in)                   Downhole Annulus Temperature
ECD             .g/cm3                                     :(RM)    (ARC6)                  (6in)                   Equivalent Circulating Density
#-------------------------------------------------------------
#            DEPT          TVD         ROP5           GR           BS         ADIA         DCAV         BLKP         HKLA         SWOB         CRPM          RPM   STICKNSLIP         STOR         SHKL         SHKL         SHKL       SHKRSK   SHOCKS_ACC      VIB_LAT        VIB_X         TFLO         SPPA         TRPM         DHAP         DHAT          ECD 
#                  (DnMWorkfl)  (DRILLING_)       (ARC6)   (Borehole)      (ADN6C)      (ADN6C)  (DRILLING_)  (DRILLING_)  (DRILLING_)    (TELE675)  (DRILLING_)    (TELE675)  (DRILLING_)      (ADN6C)       (ARC6)  (SONICVISI)    (TELE675)    (TELE675)    (TELE675)    (TELE675)  (DRILLING_)  (DRILLING_)    (TELE675)       (ARC6)       (ARC6)       (ARC6) 
#                         (RT)         (RT)         (RM)         (RT)         (RM)         (RM)         (RT)         (RT)         (RT)         (RM)         (RT)         (RM)         (RT)         (RM)         (RM)         (RM)         (RM)         (RM)         (RM)         (RM)         (RT)         (RT)         (RM)         (RM)         (RM)         (RM) 
#                        (6in)        (6in)        (6in)        (6in)        (6in)        (6in)        (6in)        (6in)        (6in)        (6in)        (6in)        (6in)        (6in)        (6in)        (6in)        (6in)        (6in)        (6in)        (6in)        (6in)        (6in)        (6in)        (6in)        (6in)        (6in)        (6in) 
~ASCII
# ...
       5272.58280   5270.39982     21.75756    105.13650      8.50000      8.58961      8.33387     11.83205    697.38276     31.13716    130.00000    151.00000     69.00000     10.58000      0.00000      0.00000      0.00000      -999.25      -999.25      -999.25      -999.25    646.36742   3401.75136      -999.25  11878.00042    105.00000      1.58523
       5272.73520   5270.55222     21.31969    106.42930      8.50000      8.58411      8.34057     11.64670    692.43537     34.67649    124.00000    140.00000    129.00000     17.75000      0.00000      0.00000      0.00000      0.00000      0.00000      0.24983      0.12492    646.36742   3347.32015   3556.00000  11887.00001    105.00000      1.58643
       5272.88760   5270.70461     17.88971    103.55110      8.50000      8.58412      8.34399     11.49225    697.60124     30.58402    140.00000    154.00000     39.00000     14.48000      0.00000      0.00000      0.00000      -999.25      -999.25      0.24983      0.12492    646.36742   3385.17645      -999.25  11857.99971    105.00000      1.58247
       5273.04000   5270.85701     14.71041    100.70900      8.50000      8.59509      8.33886     11.35414    702.14276     25.86419    136.00000    157.00000     66.00000      9.71000      0.00000      0.00000      0.00000      0.00000      0.00000      0.24983      0.12492    641.35687   3396.94626   3558.00000  11858.88879    106.00000      1.58257
       5273.19240   5271.00941     15.51896    102.78910      8.50000      8.58568      8.34002     11.18021    697.42487     30.55739    150.00000    155.00000     36.00000     10.91000      0.00000      0.00000      0.00000      0.00000      0.00000      0.24983      0.12492    646.36742   3391.33620   3567.00000  11861.00054    106.00000      1.58279
       5273.34480   5271.16181     14.60627    109.42400      8.50000      8.60293      8.37063     11.05935    695.29983     32.65868    182.00000    151.00000     96.00000     11.82000      0.00000      0.00000      0.00000      -999.25      -999.25      0.24983      0.12492    646.36742   3375.45747      -999.25  11821.00059    106.00000      1.57741
       5273.49720   5271.31421     14.35324    116.68460      8.50000      8.58333      8.37393     10.90490    692.90650     34.85352    109.00000    142.00000      -999.25     17.66000      0.00000      0.00000      0.00000      0.00000      0.00000      0.24983      0.12492    641.35687   3374.85991   3554.00000  11893.99953    106.00000      1.58710
       5273.64960   5271.46661     13.82185    120.79580      8.50000      8.58666      8.35041     10.73006    696.69514     31.04801    183.00000    139.00000    114.00000     20.81000      0.00000      0.00000      0.00000      -999.25      -999.25      0.24983      0.12492    641.35687   3357.95867      -999.25  11888.00077    106.00000      1.58625
       5273.80200   5271.61901     14.35703    118.12490      8.50000      8.59039      8.37318     10.58220    696.04434     31.83438      -999.25    158.00000      -999.25     16.27000      0.00000      0.00000      0.00000      -999.25      -999.25      -999.25      -999.25    641.35687   3406.50280      -999.25  11899.00043    106.00000      1.58769
       5273.95440   5271.77141     15.99759    107.33420      8.50000      8.59510      8.35873     10.40981    697.53488     29.89550    155.00000    151.00000      -999.25     17.56000      0.00000      0.00000      0.00000      0.00000      0.00000      0.24983      0.12492    641.35687   3378.37853   3558.00000  11865.00068    107.00000      1.58309
       5274.10680   5271.92381     17.08169     97.75083      8.50000      8.59942      8.36937     10.31211    693.54562     34.01744    165.00000    155.00000     85.50000      9.70000      0.00000      0.00000      0.00000      -999.25      -999.25      0.24983      0.12492    641.35687   3400.58091      -999.25  11872.99952    107.00000      1.58411
       5274.25920   5272.07621     17.28351     96.44589      8.50000      8.59379      8.36756     10.11579    693.73808     33.33090    164.00000    158.00000     48.00000     13.01000      0.00000      0.00000      0.00000      0.00000      0.00000      0.24983      0.12492    641.35687   3374.35083   3570.00000  11880.00049    107.00000      1.58500
       5274.41160   5272.22861     18.09939     97.19166      8.50000      8.59850      8.36359      9.97438    693.51211     34.37428    185.00000    153.00000    126.00000     11.82000      0.00000      0.00000      0.00000      -999.25      -999.25      0.24983      0.12492    641.35687   3408.40569      -999.25  11874.00028    107.00000      1.58418
       5274.56400   5272.38101     22.21384     96.35199      8.50000      8.60020      8.53701      9.80245    697.53157     30.12216    153.00000    151.00000      -999.25     17.73000      0.00000      0.00000      0.00000      -999.25      -999.25      -999.25      -999.25    646.36742   3371.26298      -999.25  11874.99959    107.00000      1.58425
       5274.71640   5272.53341     22.38769    100.70660      8.50000      8.58882      8.30367      9.65590    692.50481     35.12954      -999.25    150.00000    126.00000     18.95000      0.00000      0.00000      0.00000      0.00000      0.00000      0.24983      0.12492    646.36742   3368.12436   3561.00000  11882.00056    107.00000      1.58513
       5274.86880   5272.68581     25.26433    111.39080      8.50000      8.60842      8.35270      9.51641    693.77402     35.00910    162.00000    156.00000      -999.25     19.78000      0.00000      0.00000      0.00000      -999.25      -999.25      -999.25      -999.25    646.36742   3354.23410      -999.25  11889.00008    107.00000      1.58603
       5275.02120   5272.83821     23.27647    112.34310      8.50000      8.59954      8.35711      9.34808    694.08421     33.66300    138.00000    150.00000     96.00000     18.60000      0.00000      0.00000      0.00000      0.00000      0.00000      0.24983      0.12492    641.35687   3353.90631   3557.00000  11878.00042    107.00000      1.58451
       5275.17360   5272.99060     24.21706     95.94344      8.50000      8.59494      8.39651      9.19977    698.18039     29.90141    167.00000    158.00000      -999.25     14.48000      0.00000      0.00000      0.00000      -999.25      -999.25      -999.25      -999.25    641.35687   3410.32019      -999.25  11878.99973    107.00000      1.58461
       5275.32600   5273.14300     24.25366     79.02802      8.50000      8.59313      8.47730      9.05429    694.42085     33.62883    138.00000    151.00000    102.00000     13.25000      0.00000      0.00000      0.00000      0.00000      0.00000      0.24983      0.12492    641.35687   3393.28116   3569.00000  11863.00061    107.00000      1.58243
       5275.47840   5273.29540     21.99460     77.07183      8.50000      8.57096      8.34772      8.88190    697.33580     30.17538    158.00000    148.00000    100.50000     19.50000      0.00000      0.00000      0.00000      -999.25      -999.25      0.24983      0.12492    646.36742   3347.71755      -999.25  11878.99973    107.00000      1.58452
       5275.63080   5273.44780     21.41485     90.55817      8.50000      8.57330      8.33660      8.72484    699.34245     28.73084      -999.25    149.00000      -999.25     13.28000      0.00000      0.00000      0.00000      -999.25      -999.25      -999.25      -999.25    641.35687   3386.76026      -999.25  11882.00056    107.00000      1.58486
       5275.78320   5273.60020     21.63832    106.09820      8.50000      8.57562      8.32860      8.59202    692.80597     34.54148    154.00000    159.00000     96.00000     12.99000      0.00000      0.00000      0.00000      0.00000      0.00000      0.24983      0.12492    641.35687   3368.51161   3558.00000  11876.99966    108.00000      1.58414
       5275.93560   5273.75260     23.60067    109.71640      8.50000      8.57810      8.31160      8.43612    696.92089     31.80025      -999.25    152.00000      -999.25     16.55000      0.00000      0.00000      0.00000      -999.25      -999.25      -999.25      -999.25    646.36742   3385.48828      -999.25  11895.00029    108.00000      1.58650
