~VERSION INFORMATION 
VERS  .    2.0                                     :CWLS Log ASCII Standard - VERSION 2.0
WRAP  .    NO                                      :One Line per Depth step
PROD  .    Schlumberger Technology Corp.           :LAS Producer
PROG  .    Horizon LASWriter 10.1.205256.3100      :LAS Program name and version
SOURCE.    Run8_8.5in-Drilling                     :Run&Pass Information
CREA  .    01/07/2021                              :LAS Creation date {MM/DD/YYYY}
#--------------------------------------------------
~WELL INFORMATION 
#MNEM           .UNIT                      DATA            :DESCRIPTION
#----            ------          --------------            -----------------------------
STRT            .m                   5149.90080            :START DEPTH
STOP            .m                   5618.07360            :STOP DEPTH
STEP            .m                       0.1524            :STEP
NULL            .                       -999.25            :NULL VALUE
COMP            .                BP Development Australia Pty Ltd:COMPANY
WELL            .                    Ironbark-1            :WELL NAME
FLD             .                      Ironbark            :FIELD NAME
RIGN            .                    Ocean Apex            :Rig Name
RIGTYP          .                Semi-Submersible          :Rig Type
SON             .                     20AWA0029            :Service Order Number
SRVC            .                  Schlumberger            :SERVICE COMPANY
DATE            .                    12/25/2020            :LOG DATE(Composite Date for Composite LAP) (MM/DD/YYYY)
CLAB            .                       County:            :County Label
CNTY            .                                          :COUNTY
SLAB            .                        State:            :State/Province Label
STAT            .                Western Australia         :STATE or PROVINCE
PROV            .                Western Australia         :STATE or PROVINCE
CTRY            .                     Australia            :COUNTRY
CONT_REGION     .                   Australasia            :Continent Region
SECT            .                                          :Section
TOWN            .                                          :Township
RANG            .                                          :Range
API             .                                          :API NUMBER
UWI             .                     20AWA0029            :UNIQUE WELL ID
LUL             .                 Portside Deck            :Logging Unit Location
LUN             .                       1010979            :Logging Unit Number
LOC             .                      WA-359-P            :FIELD LOCATION
FL1             .                Northing: 7,881,270.990 m :Field Location Line 1
FL2             .                Easting: 402,902.910 m    :Field Location Line 2
LATI            .deg             19° 9' 34.079" S          :LATITUDE
LONG            .deg             116° 4' 35.795" E         :LONGITUDE
PDAT            .                           MSL            :Local Permanent Datum
LMF             .                            DF            :Logging Measured From
APD             .m                     23.85000            :Elevation of Depth Reference (LMF) Above Permanent Datum
EPD             .m                      0.00000            :Elevation of Permanent Datum (PDAT) above Mean Sea Level
EKB             .m                      -999.25            :Elevation of Kelly Bushing Above Permanent Datum
EDF             .m                     23.85000            :Elevation of Drill Floor Above Permanent Datum
EGL             .m                   -300.95000            :Elevation of Ground Level Above Permanent Datum
ECF             .m                      -999.25            :Elevation of Casing Flange above Permanent Datum
#--------------------------------------------------
~CURVE INFORMATION
#MNEM           .UNIT                  API CODE            :DESCRIPTION
#----            ------          --------------            -----------------------------
DEPT            .m                                         :                                                        Depth Index
TVD             .m                                         :(RT)    (DnMWorkflow)           (6in)                   True Vertical Depth
ROP5            .m/h                                       :(RT)    (DRILLING_SURFACE)      (6in)                   Rate of penetration averaged over the last 5 ft (1.5 m)
GR              .gAPI                                      :(RM)    (ARC6)                  (6in)                   Gamma Ray
BS              .in                                        :(RT)    (Borehole)              (6in)                   Bit Size
ADIA            .in                                        :(RM)    (ADN6C)                 (6in)                   Average Borehole Diameter
DCAV            .in                                        :(RM)    (ADN6C)                 (6in)                   Density Caliper, Average - filtered if Orion compressed
BLKP            .m                                         :(RT)    (DRILLING_SURFACE)      (6in)                   Height of block above rig floor
HKLA            .1000 lbf                                  :(RT)    (DRILLING_SURFACE)      (6in)                   Average Hookload
SWOB            .1000 lbf                                  :(RT)    (DRILLING_SURFACE)      (6in)                   Surface Weight On Bit
CRPM            .c/min                                     :(RM)    (TELE675)               (6in)                   Collar Rotational Speed
RPM             .c/min                                     :(RT)    (DRILLING_SURFACE)      (6in)                   Rotational Speed
STICKNSLIP      .c/min                                     :(RM)    (TELE675)               (6in)                   Stick Slip Indicator
STOR            .1000 ft.lbf                               :(RT)    (DRILLING_SURFACE)      (6in)                   Surface Torque
SHKL            .                                          :(RM)    (ADN6C)                 (6in)                   Tool Shock Level
SHKL            .                                          :(RM)    (ARC6)                  (6in)                   Tool Shock Level
SHKL            .                                          :(RM)    (SONICVISION6)          (6in)                   Tool Shock Level
SHKRSK          .                                          :(RM)    (TELE675)               (6in)                   Shock Risk
SHOCKS_ACC      .                                          :(RM)    (TELE675)               (6in)                   Total Shocks accumulated over tool lifetime
VIB_LAT         .gn                                        :(RM)    (TELE675)               (6in)                   Transverse RMS Vibration
VIB_X           .gn                                        :(RM)    (TELE675)               (6in)                   RMS Vibration, X-Axis
TFLO            .gal/min                                   :(RT)    (DRILLING_SURFACE)      (6in)                   Total flow rate of all active pumps
SPPA            .psi                                       :(RT)    (DRILLING_SURFACE)      (6in)                   Standpipe Pressure
TRPM            .c/min                                     :(RM)    (TELE675)               (6in)                   MWD Turbine Rotation Speed
DHAP            .psi                                       :(RM)    (ARC6)                  (6in)                   Downhole Annulus Pressure
DHAT            .degC                                      :(RM)    (ARC6)                  (6in)                   Downhole Annulus Temperature
ECD             .g/cm3                                     :(RM)    (ARC6)                  (6in)                   Equivalent Circulating Density
#-------------------------------------------------------------
#            DEPT          TVD         ROP5           GR           BS         ADIA         DCAV         BLKP         HKLA         SWOB         CRPM          RPM   STICKNSLIP         STOR         SHKL         SHKL         SHKL       SHKRSK   SHOCKS_ACC      VIB_LAT        VIB_X         TFLO         SPPA         TRPM         DHAP         DHAT          ECD 
#                  (DnMWorkfl)  (DRILLING_)       (ARC6)   (Borehole)      (ADN6C)      (ADN6C)  (DRILLING_)  (DRILLING_)  (DRILLING_)    (TELE675)  (DRILLING_)    (TELE675)  (DRILLING_)      (ADN6C)       (ARC6)  (SONICVISI)    (TELE675)    (TELE675)    (TELE675)    (TELE675)  (DRILLING_)  (DRILLING_)    (TELE675)       (ARC6)       (ARC6)       (ARC6) 
#                         (RT)         (RT)         (RM)         (RT)         (RM)         (RM)         (RT)         (RT)         (RT)         (RM)         (RT)         (RM)         (RT)         (RM)         (RM)         (RM)         (RM)         (RM)         (RM)         (RM)         (RT)         (RT)         (RM)         (RM)         (RM)         (RM) 
#                        (6in)        (6in)        (6in)        (6in)        (6in)        (6in)        (6in)        (6in)        (6in)        (6in)        (6in)        (6in)        (6in)        (6in)        (6in)        (6in)        (6in)        (6in)        (6in)        (6in)        (6in)        (6in)        (6in)        (6in)        (6in)        (6in) 
~ASCII
# ...
       5461.86360   5459.67884     10.10711     60.81023      8.50000      8.55507      8.35335     16.88957    699.43901     28.68390    135.00000    142.00000     43.50000     13.55000      0.00000      0.00000      0.00000      0.00000      0.00000      0.24983      0.12492    651.37797   3494.43773   3603.00000  12380.99999    117.00000      1.59507
       5462.01600   5459.83124     10.45293     55.03765      8.50000      8.66517      8.38104     16.73880    699.32459     27.06514    145.00000    143.00000     24.00000     12.97000      0.00000      0.00000      0.00000      -999.25      -999.25      0.24983      0.12492    651.37797   3476.17893      -999.25  12366.00019    117.00000      1.59308
       5462.16840   5459.98364     10.05479     60.74026      8.50000      8.60686      8.35873     16.59586    699.74568     26.83581    139.33330    143.00000     57.00000     11.80000      0.00000      0.00000      0.00000      0.00000      0.00000      0.24983      0.12492    651.37797   3475.88740   3600.00000  12371.07216    117.00000      1.59371
       5462.32080   5460.13604     11.61926     68.31223      8.50000      8.59738      8.34824     16.45061    700.29242     26.20531      -999.25    143.00000      -999.25     13.27000      0.00000      0.00000      0.00000      -999.25      -999.25      -999.25      -999.25    651.37797   3485.61363      -999.25  12374.00047    117.00000      1.59403
       5462.47320   5460.28844     11.05336     66.01368      8.50000      8.58564      8.33950     16.32055    698.00050     29.69236    140.00000    144.00000     73.00000     12.40000      0.00000      0.00000      0.00000      0.00000      0.00000      0.24983      0.12492    651.37797   3499.28054   3604.00000  12362.00005    117.00000      1.59246
       5462.62560   5460.44084     10.25611     62.17034      8.50000      8.57506      8.31656     16.17400    698.61867     27.68129    137.33330    143.00000     39.00000     12.68000      0.00000      0.00000      0.00000      0.00000      0.00000      0.24983      0.12492    651.37797   3478.72144   3601.00000  12360.99929    117.00000      1.59228
       5462.77800   5460.59324      9.74059     63.84764      8.50000      8.55428      8.29193     15.97277    706.91643     19.61563     97.50000    145.00000     34.50000     25.58000      0.00000      0.00000      0.00000      0.00000      0.00000      0.24983      0.12492    651.37797   3462.31767   3612.00000  12370.99964    117.00000      1.59351
       5462.93040   5460.74564      9.79505     64.43433      8.50000      8.56684      8.30951     15.83052    696.26811     30.12903    154.00000    145.00000    303.00000     12.98000      0.00000      0.00000      0.00000      -999.25      -999.25      0.24983      0.12492    651.37797   3493.74735      -999.25  12366.00019    117.00000      1.59284
       5463.08280   5460.89804     10.54244     60.14764      8.50000      8.56846      8.30783     15.69831    701.64871     24.66547      -999.25    146.00000      -999.25     12.98000      0.00000      0.00000      0.00000      -999.25      -999.25      -999.25      -999.25    651.37797   3482.25021      -999.25  12359.99998    117.00000      1.59200
       5463.23520   5461.05044     11.17042     60.40083      8.50000      8.56765      8.33234     15.54524    691.53699     32.92963    141.33330    139.00000     51.00000     15.83000      0.00000      0.00000      0.00000      0.00000      0.00000      0.24983      0.12492    651.37797   3481.89196   3597.00000  12362.00005    117.00000      1.59223
       5463.38760   5461.20284      9.74120     65.36495      8.50000      8.60659      8.32248     15.41487    696.39068     29.91397    125.50000    137.00000     72.00000     14.23000      0.00000      0.00000      0.00000      0.00000      0.00000      0.24983      0.12492    651.37797   3488.76820   3605.00000  12360.99929    117.00000      1.59204
       5463.54000   5461.35524     10.32797     70.98570      8.50000      8.56764      8.31388     15.20866    700.58079     25.36820      -999.25    143.00000    111.00000     13.56000      0.00000      0.00000      -999.25      -999.25      -999.25      -999.25      -999.25    651.37797   3475.70030      -999.25  12374.00047    117.00000      1.59369
       5463.69240   5461.50764     10.27710     79.17778      8.50000      8.59248      8.30418     15.11196    698.46457     28.42493    138.50000    148.00000     60.00000     11.81000      0.00000      0.00000      0.00000      0.00000      0.00000      0.24983      0.12492    651.37797   3492.91338   3600.00000  12393.00042    117.00000      1.59609
       5463.84480   5461.66004     11.14525     80.48175      8.50000      8.57941      8.30254     14.90429    694.07605     32.54751    140.00000    147.00000    111.00000     13.84000      0.00000      0.00000      0.00000      0.00000      0.00000      0.24983      0.12492    651.37797   3527.51648   3594.00000  12366.99950    117.00000      1.59269
       5463.99720   5461.81244     11.23073     70.45080      8.50000      8.57706      8.27800     14.80291    693.92018     32.36884    133.50000    144.00000     78.00000     12.69000      0.00000      0.00000      0.00000      0.00000      0.00000      0.24983      0.12492    651.37797   3485.66874   3596.00000  12383.99937    117.00000      1.59483
       5464.14960   5461.96484     11.57161     63.90050      8.50000      8.59196      8.32600     14.64892    698.73287     27.41323    142.00000    140.00000     63.00000     14.18000      0.00000      0.00000      0.00000      -999.25      -999.25      0.24983      0.12492    651.37797   3492.28972      -999.25  12374.00047    117.00000      1.59350
       5464.30200   5462.11724     12.17425     64.89732      8.50000      8.57391      8.33516     14.49609    699.19540     27.64149    142.00000    148.00000     30.00000     11.48000      0.00000      0.00000      0.00000      0.00000      0.00000      0.24983      0.12492    651.37797   3486.14882   3595.00000  12366.00019    117.00000      1.59242
       5464.45440   5462.26964     11.71333     61.11101      8.50000      8.58059      8.34221     14.31142    698.82150     27.63792    129.00000    141.00000    127.00000     15.34000      0.00000      0.00000      0.00000      0.00000      0.00000      0.24983      0.12492    651.37797   3479.32044   3598.00000  12368.99957    117.00000      1.59275
       5464.60680   5462.42204     10.75104     60.00675      8.50000      8.58176      8.33360     14.18190    701.69478     24.44900      -999.25    145.00000      -999.25     13.26000      0.00000      0.00000      0.00000      -999.25      -999.25      -999.25      -999.25    651.37797   3484.82463      -999.25  12366.99950    117.00000      1.59245
       5464.75920   5462.57444     10.04702     88.36603      8.50000      8.59902      8.35320     14.02300    697.95618     27.70765    128.75000    146.00000     33.75000     13.27000      0.00000      0.00000      0.00000      0.00000      0.00000      0.24983      0.12492    651.37797   3490.76827   3599.00000  12358.99922    117.00000      1.59140
       5464.91160   5462.72684     10.55521    141.77350      8.50000      8.55978      8.39377     13.87001    700.06777     26.08615    146.50000    146.00000     49.50000     12.09000      0.00000      0.00000      0.00000      0.00000      0.00000      0.24983      0.12492    651.37797   3486.35912   3595.00000  12372.00040    117.00000      1.59302
       5465.06400   5462.87924      9.55109    187.38370      8.50000      8.59274      8.34187     13.73190    708.01257     18.77279    149.00000    151.00000     39.00000     17.14000      0.00000      0.00000      0.00000      0.00000      0.00000      0.24983      0.12492    651.37797   3483.17845   3589.00000  12370.00033    117.00000      1.59273
       5465.21640   5463.03164     10.39579    211.26920      8.50000      8.57092      8.33776     13.60176    703.20627     23.27193      -999.25    142.00000    225.00000     18.90000      0.00000      0.00000      0.00000      -999.25      -999.25      -999.25      -999.25    651.37797   3464.95446      -999.25  12372.00040    117.00000      1.59292
