~VERSION INFORMATION 
VERS  .    2.0                                     :CWLS Log ASCII Standard - VERSION 2.0
WRAP  .    NO                                      :One Line per Depth step
PROD  .    Schlumberger Technology Corp.           :LAS Producer
PROG  .    Horizon LASWriter 10.1.205256.3100      :LAS Program name and version
SOURCE.    Run8_8.5in-Drilling                     :Run&Pass Information
CREA  .    01/07/2021                              :LAS Creation date {MM/DD/YYYY}
#--------------------------------------------------
~WELL INFORMATION 
#MNEM           .UNIT                      DATA            :DESCRIPTION
#----            ------          --------------            -----------------------------
STRT            .m                   5149.90080            :START DEPTH
STOP            .m                   5618.07360            :STOP DEPTH
STEP            .m                       0.1524            :STEP
NULL            .                       -999.25            :NULL VALUE
COMP            .                BP Development Australia Pty Ltd:COMPANY
WELL            .                    Ironbark-1            :WELL NAME
FLD             .                      Ironbark            :FIELD NAME
RIGN            .                    Ocean Apex            :Rig Name
RIGTYP          .                Semi-Submersible          :Rig Type
SON             .                     20AWA0029            :Service Order Number
SRVC            .                  Schlumberger            :SERVICE COMPANY
DATE            .                    12/25/2020            :LOG DATE(Composite Date for Composite LAP) (MM/DD/YYYY)
CLAB            .                       County:            :County Label
CNTY            .                                          :COUNTY
SLAB            .                        State:            :State/Province Label
STAT            .                Western Australia         :STATE or PROVINCE
PROV            .                Western Australia         :STATE or PROVINCE
CTRY            .                     Australia            :COUNTRY
CONT_REGION     .                   Australasia            :Continent Region
SECT            .                                          :Section
TOWN            .                                          :Township
RANG            .                                          :Range
API             .                                          :API NUMBER
UWI             .                     20AWA0029            :UNIQUE WELL ID
LUL             .                 Portside Deck            :Logging Unit Location
LUN             .                       1010979            :Logging Unit Number
LOC             .                      WA-359-P            :FIELD LOCATION
FL1             .                Northing: 7,881,270.990 m :Field Location Line 1
FL2             .                Easting: 402,902.910 m    :Field Location Line 2
LATI            .deg             19° 9' 34.079" S          :LATITUDE
LONG            .deg             116° 4' 35.795" E         :LONGITUDE
PDAT            .                           MSL            :Local Permanent Datum
LMF             .                            DF            :Logging Measured From
APD             .m                     23.85000            :Elevation of Depth Reference (LMF) Above Permanent Datum
EPD             .m                      0.00000            :Elevation of Permanent Datum (PDAT) above Mean Sea Level
EKB             .m                      -999.25            :Elevation of Kelly Bushing Above Permanent Datum
EDF             .m                     23.85000            :Elevation of Drill Floor Above Permanent Datum
EGL             .m                   -300.95000            :Elevation of Ground Level Above Permanent Datum
ECF             .m                      -999.25            :Elevation of Casing Flange above Permanent Datum
#--------------------------------------------------
~CURVE INFORMATION
#MNEM           .UNIT                  API CODE            :DESCRIPTION
#----            ------          --------------            -----------------------------
DEPT            .m                                         :                                                        Depth Index
TVD             .m                                         :(RT)    (DnMWorkflow)           (6in)                   True Vertical Depth
ROP5            .m/h                                       :(RT)    (DRILLING_SURFACE)      (6in)                   Rate of penetration averaged over the last 5 ft (1.5 m)
GR              .gAPI                                      :(RM)    (ARC6)                  (6in)                   Gamma Ray
BS              .in                                        :(RT)    (Borehole)              (6in)                   Bit Size
ADIA            .in                                        :(RM)    (ADN6C)                 (6in)                   Average Borehole Diameter
DCAV            .in                                        :(RM)    (ADN6C)                 (6in)                   Density Caliper, Average - filtered if Orion compressed
BLKP            .m                                         :(RT)    (DRILLING_SURFACE)      (6in)                   Height of block above rig floor
HKLA            .1000 lbf                                  :(RT)    (DRILLING_SURFACE)      (6in)                   Average Hookload
SWOB            .1000 lbf                                  :(RT)    (DRILLING_SURFACE)      (6in)                   Surface Weight On Bit
CRPM            .c/min                                     :(RM)    (TELE675)               (6in)                   Collar Rotational Speed
RPM             .c/min                                     :(RT)    (DRILLING_SURFACE)      (6in)                   Rotational Speed
STICKNSLIP      .c/min                                     :(RM)    (TELE675)               (6in)                   Stick Slip Indicator
STOR            .1000 ft.lbf                               :(RT)    (DRILLING_SURFACE)      (6in)                   Surface Torque
SHKL            .                                          :(RM)    (ADN6C)                 (6in)                   Tool Shock Level
SHKL            .                                          :(RM)    (ARC6)                  (6in)                   Tool Shock Level
SHKL            .                                          :(RM)    (SONICVISION6)          (6in)                   Tool Shock Level
SHKRSK          .                                          :(RM)    (TELE675)               (6in)                   Shock Risk
SHOCKS_ACC      .                                          :(RM)    (TELE675)               (6in)                   Total Shocks accumulated over tool lifetime
VIB_LAT         .gn                                        :(RM)    (TELE675)               (6in)                   Transverse RMS Vibration
VIB_X           .gn                                        :(RM)    (TELE675)               (6in)                   RMS Vibration, X-Axis
TFLO            .gal/min                                   :(RT)    (DRILLING_SURFACE)      (6in)                   Total flow rate of all active pumps
SPPA            .psi                                       :(RT)    (DRILLING_SURFACE)      (6in)                   Standpipe Pressure
TRPM            .c/min                                     :(RM)    (TELE675)               (6in)                   MWD Turbine Rotation Speed
DHAP            .psi                                       :(RM)    (ARC6)                  (6in)                   Downhole Annulus Pressure
DHAT            .degC                                      :(RM)    (ARC6)                  (6in)                   Downhole Annulus Temperature
ECD             .g/cm3                                     :(RM)    (ARC6)                  (6in)                   Equivalent Circulating Density
#-------------------------------------------------------------
#            DEPT          TVD         ROP5           GR           BS         ADIA         DCAV         BLKP         HKLA         SWOB         CRPM          RPM   STICKNSLIP         STOR         SHKL         SHKL         SHKL       SHKRSK   SHOCKS_ACC      VIB_LAT        VIB_X         TFLO         SPPA         TRPM         DHAP         DHAT          ECD 
#                  (DnMWorkfl)  (DRILLING_)       (ARC6)   (Borehole)      (ADN6C)      (ADN6C)  (DRILLING_)  (DRILLING_)  (DRILLING_)    (TELE675)  (DRILLING_)    (TELE675)  (DRILLING_)      (ADN6C)       (ARC6)  (SONICVISI)    (TELE675)    (TELE675)    (TELE675)    (TELE675)  (DRILLING_)  (DRILLING_)    (TELE675)       (ARC6)       (ARC6)       (ARC6) 
#                         (RT)         (RT)         (RM)         (RT)         (RM)         (RM)         (RT)         (RT)         (RT)         (RM)         (RT)         (RM)         (RT)         (RM)         (RM)         (RM)         (RM)         (RM)         (RM)         (RM)         (RT)         (RT)         (RM)         (RM)         (RM)         (RM) 
#                        (6in)        (6in)        (6in)        (6in)        (6in)        (6in)        (6in)        (6in)        (6in)        (6in)        (6in)        (6in)        (6in)        (6in)        (6in)        (6in)        (6in)        (6in)        (6in)        (6in)        (6in)        (6in)        (6in)        (6in)        (6in)        (6in) 
~ASCII
# ...
       5367.22320   5365.03876     14.64829    145.84210      8.50000      8.62223      8.30284     28.59654    706.90387     18.06625      -999.25    147.00000     90.00000     16.85000      0.00000      0.00000      0.00000      0.00000      0.00000      0.24983      0.00000    696.47346   3885.21580   3830.00000  12160.99950    113.00000      1.59439
       5367.37560   5365.19116     18.00625    145.42190      8.50000      8.63509      8.36267     28.45836    705.31213     19.59783    154.00000    151.00000     48.00000     14.17000      0.00000      0.00000      0.00000      -999.25      -999.25      0.24983      0.12492    691.46291   3887.52916      -999.25  12171.99916    113.00000      1.59579
       5367.52800   5365.34356     18.94548    145.24940      8.50000      8.61529      8.37057     28.33512    709.24451     15.67502    158.00000    141.00000      -999.25     14.75000      0.00000      0.00000      0.00000      0.00000      0.00000      0.24983      0.12492    696.47346   3867.53860   3832.00000  12177.00006    113.00000      1.59640
       5367.68040   5365.49596     19.40501    135.60330      8.50000      8.56216      8.33443     28.13504    704.41242     20.60994      -999.25    147.00000     60.00000     15.34000      0.00000      0.00000      0.00000      -999.25      -999.25      -999.25      -999.25    696.47346   3889.37694      -999.25  12183.00028    113.00000      1.59711
       5367.83280   5365.64835     29.28902    128.56960      8.50000      8.60294      8.34085     27.98612    703.09516     23.04968    143.00000    149.00000     60.00000     15.05000      0.00000      0.00000      0.00000      -999.25      -999.25      0.24983      0.12492    696.47346   3918.89647      -999.25  12184.11997    113.00000      1.59723
       5367.98520   5365.80075     26.59910    138.02780      8.50000      8.57052      8.32022     27.87868    708.33334     16.39970    140.00000    145.00000     63.00000     15.05000      0.00000      0.00000      0.00000      0.00000      0.00000      0.24983      0.12492    696.47346   3869.54013   3832.00000  12187.00042    113.00000      1.59755
       5368.13760   5365.95315     28.77653    151.97280      8.50000      8.58411      8.33936     27.71503    704.59100     20.23115      -999.25    140.00000      -999.25     14.47000      0.00000      0.00000      0.00000      -999.25      -999.25      -999.25      -999.25    696.47346   3896.93340      -999.25  12200.00015    113.00000      1.59921
       5368.29000   5366.10555     32.09388    156.96570      8.50000      8.61233      8.36143     27.54218    699.62112     25.05207    140.50000    148.00000     84.00000     18.04000      0.00000      0.00000      0.00000      0.00000      0.00000      0.24983      0.12492    696.47346   3895.76440   3825.00000  12173.99923    113.00000      1.59575
       5368.44240   5366.25795     26.56180    149.18150      8.50000      8.61870      8.36528     27.39655    708.18806     16.34811      -999.25    150.00000     75.00000     15.98000      0.00000      0.00000      0.00000      -999.25      -999.25      -999.25      -999.25    696.47346   3905.86338      -999.25  12189.99980    113.00000      1.59784
       5368.59480   5366.41034     25.74605    133.72130      8.50000      8.62536      8.35314     27.24409    706.71912     17.75613    142.00000    150.00000      -999.25     13.26000      0.00000      0.00000      0.00000      -999.25      -999.25      0.24983      0.00000    696.47346   3872.80492      -999.25  12174.99999    113.00000      1.59582
       5368.74720   5366.56274     24.84579    130.35010      8.50000      8.58804      8.33198     27.06687    703.17078     22.11270    165.00000    152.00000    103.50000     10.91000      0.00000      0.00000      0.00000      0.00000      0.00000      0.24983      0.12492    691.46291   3907.65894   3848.00000  12168.00047    114.00000      1.59483
       5368.89960   5366.71514     22.64700    150.08010      8.50000      8.60372      8.34901     26.95337    702.85419     22.19195      -999.25    149.00000     45.00000     14.01000      0.00000      0.00000      0.00000      -999.25      -999.25      -999.25      -999.25    696.47346   3893.08265      -999.25  12160.99950    114.00000      1.59386
       5369.05200   5366.86754     23.11071    176.76300      8.50000      8.57353      8.38746     26.78972    704.52464     20.19183    159.00000    153.00000      -999.25     18.60000      0.00000      0.00000      0.00000      0.00000      0.00000      0.24983      0.12492    696.47346   3849.58873   3828.00000  12162.62827    114.00000      1.59405
       5369.20440   5367.01994     21.92642    187.94520      8.50000      8.61851      8.34263     26.65721    702.48536     22.55699    111.00000    153.00000     87.00000     13.55000      0.00000      0.00000      0.00000      -999.25      -999.25      0.24983      0.12492    696.47346   3902.87270      -999.25  12164.99964    114.00000      1.59433
       5369.35680   5367.17233     20.55000    179.20270      8.50000      8.60529      8.33604     26.54448    704.88267     20.65757      -999.25    154.00000      -999.25     10.86000      0.00000      0.00000      0.00000      -999.25      -999.25      -999.25      -999.25    691.46291   3899.65866      -999.25  12196.99932    114.00000      1.59846
       5369.50920   5367.32473     24.19376    165.70130      8.50000      8.63039      8.34643     26.27983    705.15626     22.71136    143.00000    153.00000     93.00000     15.33000      0.00000      0.00000      0.00000      0.00000      0.00000      0.24983      0.12492    696.47346   3895.96600   3843.00000  12209.99905    114.00000      1.60013
       5369.66160   5367.47713     22.24896    163.59220      8.50000      8.62176      8.31394     26.19647    709.02471     16.61606      -999.25    146.00000      -999.25     16.54000      0.00000      0.00000      0.00000      -999.25      -999.25      -999.25      -999.25    696.47346   3879.57964      -999.25  12194.99925    114.00000      1.59810
       5369.81400   5367.62953     22.56554    172.16640      8.50000      8.60230      8.30600     26.05115    704.05836     20.61461    141.00000    143.00000     57.00000     17.13000      0.00000      0.00000      0.00000      -999.25      -999.25      0.24983      0.12492    696.47346   3887.17961      -999.25  12206.00036    114.00000      1.59953
       5369.96640   5367.78193     26.23077    177.06860      8.50000      8.59881      8.35681     25.90207    700.02677     25.00620    147.00000    144.00000      -999.25     18.04000      0.00000      0.00000      0.00000      0.00000      0.00000      0.24983      0.12492    696.47346   3903.53407   3836.00000  12196.99932    114.00000      1.59829
       5370.11880   5367.93432     24.01361    169.35310      8.50000      8.56111      8.34625     25.74946    708.94667     16.03425      -999.25    144.00000     51.00000     18.95000      0.00000      0.00000      0.00000      -999.25      -999.25      -999.25      -999.25    696.47346   3888.84175      -999.25  12206.00036    114.00000      1.59942
       5370.27120   5368.08672     24.33485    160.10690      8.50000      8.54961      8.32088     25.60115    708.79389     16.44191    138.00000    151.00000      -999.25     15.96000      0.00000      0.00000      0.00000      -999.25      -999.25      0.24983      0.12492    696.47346   3894.30097      -999.25  12196.00001    114.00000      1.59805
       5370.42360   5368.23912     31.22752    160.00740      8.50000      8.54226      8.34078     25.43918    705.12694     19.04938      -999.25    148.00000     51.00000     16.26000      0.00000      0.00000      0.00000      -999.25      -999.25      -999.25      -999.25    696.47346   3902.11125      -999.25  12181.99951    114.00000      1.59617
       5370.57600   5368.39152     33.01447    160.51850      8.50000      8.53000      8.33113     25.29455    703.07510     21.91491      -999.25    149.00000      -999.25     16.83000      0.00000      0.00000      0.00000      -999.25      -999.25      -999.25      -999.25    696.47346   3913.08045      -999.25  12194.99925    114.00000      1.59783
