~VERSION INFORMATION 
VERS  .    2.0                                     :CWLS Log ASCII Standard - VERSION 2.0
WRAP  .    NO                                      :One Line per Depth step
PROD  .    Schlumberger Technology Corp.           :LAS Producer
PROG  .    Horizon LASWriter 10.1.205256.3100      :LAS Program name and version
SOURCE.    Run8_8.5in-Drilling                     :Run&Pass Information
CREA  .    01/07/2021                              :LAS Creation date {MM/DD/YYYY}
#--------------------------------------------------
~WELL INFORMATION 
#MNEM           .UNIT                      DATA            :DESCRIPTION
#----            ------          --------------            -----------------------------
STRT            .m                   5149.90080            :START DEPTH
STOP            .m                   5618.07360            :STOP DEPTH
STEP            .m                       0.1524            :STEP
NULL            .                       -999.25            :NULL VALUE
COMP            .                BP Development Australia Pty Ltd:COMPANY
WELL            .                    Ironbark-1            :WELL NAME
FLD             .                      Ironbark            :FIELD NAME
RIGN            .                    Ocean Apex            :Rig Name
RIGTYP          .                Semi-Submersible          :Rig Type
SON             .                     20AWA0029            :Service Order Number
SRVC            .                  Schlumberger            :SERVICE COMPANY
DATE            .                    12/25/2020            :LOG DATE(Composite Date for Composite LAP) (MM/DD/YYYY)
CLAB            .                       County:            :County Label
CNTY            .                                          :COUNTY
SLAB            .                        State:            :State/Province Label
STAT            .                Western Australia         :STATE or PROVINCE
PROV            .                Western Australia         :STATE or PROVINCE
CTRY            .                     Australia            :COUNTRY
CONT_REGION     .                   Australasia            :Continent Region
SECT            .                                          :Section
TOWN            .                                          :Township
RANG            .                                          :Range
API             .                                          :API NUMBER
UWI             .                     20AWA0029            :UNIQUE WELL ID
LUL             .                 Portside Deck            :Logging Unit Location
LUN             .                       1010979            :Logging Unit Number
LOC             .                      WA-359-P            :FIELD LOCATION
FL1             .                Northing: 7,881,270.990 m :Field Location Line 1
FL2             .                Easting: 402,902.910 m    :Field Location Line 2
LATI            .deg             19° 9' 34.079" S          :LATITUDE
LONG            .deg             116° 4' 35.795" E         :LONGITUDE
PDAT            .                           MSL            :Local Permanent Datum
LMF             .                            DF            :Logging Measured From
APD             .m                     23.85000            :Elevation of Depth Reference (LMF) Above Permanent Datum
EPD             .m                      0.00000            :Elevation of Permanent Datum (PDAT) above Mean Sea Level
EKB             .m                      -999.25            :Elevation of Kelly Bushing Above Permanent Datum
EDF             .m                     23.85000            :Elevation of Drill Floor Above Permanent Datum
EGL             .m                   -300.95000            :Elevation of Ground Level Above Permanent Datum
ECF             .m                      -999.25            :Elevation of Casing Flange above Permanent Datum
#--------------------------------------------------
~CURVE INFORMATION
#MNEM           .UNIT                  API CODE            :DESCRIPTION
#----            ------          --------------            -----------------------------
DEPT            .m                                         :                                                        Depth Index
TVD             .m                                         :(RT)    (DnMWorkflow)           (6in)                   True Vertical Depth
ROP5            .m/h                                       :(RT)    (DRILLING_SURFACE)      (6in)                   Rate of penetration averaged over the last 5 ft (1.5 m)
GR              .gAPI                                      :(RM)    (ARC6)                  (6in)                   Gamma Ray
BS              .in                                        :(RT)    (Borehole)              (6in)                   Bit Size
ADIA            .in                                        :(RM)    (ADN6C)                 (6in)                   Average Borehole Diameter
DCAV            .in                                        :(RM)    (ADN6C)                 (6in)                   Density Caliper, Average - filtered if Orion compressed
BLKP            .m                                         :(RT)    (DRILLING_SURFACE)      (6in)                   Height of block above rig floor
HKLA            .1000 lbf                                  :(RT)    (DRILLING_SURFACE)      (6in)                   Average Hookload
SWOB            .1000 lbf                                  :(RT)    (DRILLING_SURFACE)      (6in)                   Surface Weight On Bit
CRPM            .c/min                                     :(RM)    (TELE675)               (6in)                   Collar Rotational Speed
RPM             .c/min                                     :(RT)    (DRILLING_SURFACE)      (6in)                   Rotational Speed
STICKNSLIP      .c/min                                     :(RM)    (TELE675)               (6in)                   Stick Slip Indicator
STOR            .1000 ft.lbf                               :(RT)    (DRILLING_SURFACE)      (6in)                   Surface Torque
SHKL            .                                          :(RM)    (ADN6C)                 (6in)                   Tool Shock Level
SHKL            .                                          :(RM)    (ARC6)                  (6in)                   Tool Shock Level
SHKL            .                                          :(RM)    (SONICVISION6)          (6in)                   Tool Shock Level
SHKRSK          .                                          :(RM)    (TELE675)               (6in)                   Shock Risk
SHOCKS_ACC      .                                          :(RM)    (TELE675)               (6in)                   Total Shocks accumulated over tool lifetime
VIB_LAT         .gn                                        :(RM)    (TELE675)               (6in)                   Transverse RMS Vibration
VIB_X           .gn                                        :(RM)    (TELE675)               (6in)                   RMS Vibration, X-Axis
TFLO            .gal/min                                   :(RT)    (DRILLING_SURFACE)      (6in)                   Total flow rate of all active pumps
SPPA            .psi                                       :(RT)    (DRILLING_SURFACE)      (6in)                   Standpipe Pressure
TRPM            .c/min                                     :(RM)    (TELE675)               (6in)                   MWD Turbine Rotation Speed
DHAP            .psi                                       :(RM)    (ARC6)                  (6in)                   Downhole Annulus Pressure
DHAT            .degC                                      :(RM)    (ARC6)                  (6in)                   Downhole Annulus Temperature
ECD             .g/cm3                                     :(RM)    (ARC6)                  (6in)                   Equivalent Circulating Density
#-------------------------------------------------------------
#            DEPT          TVD         ROP5           GR           BS         ADIA         DCAV         BLKP         HKLA         SWOB         CRPM          RPM   STICKNSLIP         STOR         SHKL         SHKL         SHKL       SHKRSK   SHOCKS_ACC      VIB_LAT        VIB_X         TFLO         SPPA         TRPM         DHAP         DHAT          ECD 
#                  (DnMWorkfl)  (DRILLING_)       (ARC6)   (Borehole)      (ADN6C)      (ADN6C)  (DRILLING_)  (DRILLING_)  (DRILLING_)    (TELE675)  (DRILLING_)    (TELE675)  (DRILLING_)      (ADN6C)       (ARC6)  (SONICVISI)    (TELE675)    (TELE675)    (TELE675)    (TELE675)  (DRILLING_)  (DRILLING_)    (TELE675)       (ARC6)       (ARC6)       (ARC6) 
#                         (RT)         (RT)         (RM)         (RT)         (RM)         (RM)         (RT)         (RT)         (RT)         (RM)         (RT)         (RM)         (RT)         (RM)         (RM)         (RM)         (RM)         (RM)         (RM)         (RM)         (RT)         (RT)         (RM)         (RM)         (RM)         (RM) 
#                        (6in)        (6in)        (6in)        (6in)        (6in)        (6in)        (6in)        (6in)        (6in)        (6in)        (6in)        (6in)        (6in)        (6in)        (6in)        (6in)        (6in)        (6in)        (6in)        (6in)        (6in)        (6in)        (6in)        (6in)        (6in)        (6in) 
~ASCII
# ...
       5304.12960   5301.94634     11.52341     71.95501      8.50000      8.56882      8.33546      7.90107    694.53990     33.42525    163.00000    143.00000     81.00000     17.42000      0.00000      0.00000      0.00000      0.00000      0.00000      0.24983      0.12492    646.36742   3413.52987   3570.00000  11962.99978    109.00000      1.58708
       5304.28200   5302.09874     11.64508     80.44532      8.50000      8.55858      8.33105      7.77354    695.51942     33.06127    133.00000    156.00000     63.00000     10.57000      0.00000      0.00000      0.00000      0.00000      0.00000      0.24983      0.12492    646.36742   3443.58750   3587.00000  11959.00109    109.00000      1.58651
       5304.43440   5302.25114     12.29357     95.45691      8.50000      8.56765      8.35465      7.62891    693.92812     33.76554    143.00000    151.00000     70.50000     12.99000      0.00000      0.00000      0.00000      -999.25      -999.25      0.24983      0.12492    646.36742   3437.13767      -999.25  11946.99922    109.00000      1.58486
       5304.58680   5302.40353     12.27830    106.03970      8.50000      8.55353      8.34422      7.46771    692.82669     35.64802      -999.25    145.00000      -999.25     16.56000      0.00000      0.00000      0.00000      -999.25      -999.25      -999.25      -999.25    646.36742   3436.64309      -999.25  11954.00019    109.00000      1.58574
       5304.73920   5302.55593     12.74376    101.88680      8.50000      8.55714      8.33284      7.29494    697.11424     31.00365    150.50000    142.00000     93.00000     17.15000      0.00000      0.00000      0.00000      0.00000      0.00000      0.24983      0.12492    646.36742   3421.19947   3576.00000  11945.00060    109.00000      1.58452
       5304.89160   5302.70833     13.22954     89.71799      8.50000      8.56137      8.30554      7.17093    691.68712     36.71323      -999.25    144.00000      -999.25     18.92000      0.00000      0.00000      0.00000      -999.25      -999.25      -999.25      -999.25    646.36742   3427.69136      -999.25  11956.00026    110.00000      1.58593
       5305.04400   5302.86073     13.20983     80.36015      8.50000      8.55980      8.31597      6.98926    695.70967     33.01762    142.75000    155.00000     82.00000     12.07000      0.00000      0.00000      0.00000      0.00000      0.00000      0.24983      0.12492    646.36742   3457.45455   3574.00000  11960.00040    110.00000      1.58641
       5305.19640   5303.01312     13.30645     69.91886      8.50000      8.67749      8.31086      6.83389    698.08339     30.42862      -999.25    151.00000     99.00000     12.68000      0.00000      0.00000      0.00000      -999.25      -999.25      -999.25      -999.25    651.37797   3442.89276      -999.25  11969.99930    110.00000      1.58769
       5305.34880   5303.16552     13.04414     57.90652      8.50000      8.63012      8.31013      6.67791    693.68693     37.21881    149.00000    152.00000     99.00000     16.57000      0.00000      0.00000      0.00000      0.00000      0.00000      0.24983      0.12492    651.37797   3440.46918   3571.00000  11942.00122    110.00000      1.58394
       5305.50120   5303.31792     13.49372     52.33459      8.50000      8.57706      8.33302      6.50191    695.37589     32.90626    155.00000    156.00000     72.00000     11.80000      0.00000      0.00000      0.00000      -999.25      -999.25      0.24983      0.12492    646.36742   3451.66175      -999.25  11954.99950    110.00000      1.58562
       5305.65360   5303.47031     14.21257     55.26366      8.50000      8.59274      8.36691      6.36871    695.95725     32.32301    136.00000    156.00000    102.00000     13.57000      0.00000      0.00000      0.00000      0.00000      0.00000      0.24983      0.12492    646.36742   3449.12214   3568.00000  11954.00019    110.00000      1.58543
       5305.80600   5303.62271     14.38013     62.59490      8.50000      8.59352      8.34911      6.20398    696.88893     31.21516    177.50000    167.00000    117.00000     12.71000      0.00000      0.00000      0.00000      0.00000      0.00000      0.24983      0.12492    646.36742   3467.65216   3593.00000  11954.00019    110.00000      1.58538
       5305.95840   5303.77511     14.81872     71.61646      8.50000      8.58726      8.38896      6.07530    697.14621     31.22914      -999.25    153.00000    114.00000     15.35000      0.00000      0.00000      0.00000      -999.25      -999.25      -999.25      -999.25    651.37797   3435.10569      -999.25  11952.99943    110.00000      1.58520
       5306.11080   5303.92751     14.43622     77.11216      8.50000      8.57548      8.38736      5.89110    692.50658     35.81174    150.00000    148.00000     70.50000     17.14000      0.00000      0.00000      0.00000      0.00000      0.00000      0.24983      0.12492    646.36742   3432.99974   3586.00000  11952.00012    110.00000      1.58504
       5306.26320   5304.07990     13.45255     71.89334      8.50000      8.57084      8.33947      5.75230    695.33864     33.06041    127.50000    152.00000     61.50000     14.92000      0.00000      0.00000      0.00000      0.00000      0.00000      0.24983      0.12492    651.37797   3435.45088   3573.00000  11945.99991    110.00000      1.58421
       5306.41560   5304.23230     12.96854     62.00732      8.50000      8.56539      8.34277      5.59003    695.26169     33.12371    147.00000    154.00000      -999.25     13.57000      0.00000      0.00000      0.00000      0.00000      0.00000      0.24983      0.12492    646.36742   3440.58957   3583.00000  11954.00019    110.00000      1.58520
       5306.56800   5304.38470     12.86573     59.63937      8.50000      8.56216      8.35172      5.45452    697.34683     30.70678    146.00000    152.00000     54.00000     12.41000      0.00000      0.00000      -999.25      -999.25      -999.25      0.24983      0.12492    646.36742   3447.42664      -999.25  11947.99998    110.00000      1.58437
       5306.72040   5304.53709     14.27677     64.09450      8.50000      8.56991      8.35036      5.29440    694.05180     34.39361    146.00000    146.00000      -999.25     15.64000      0.00000      0.00000      0.00000      0.00000      0.00000      0.24983      0.12492    646.36742   3451.02358   3576.00000  11945.99991    110.00000      1.58407
       5306.87280   5304.68949     13.16523     66.38882      8.50000      8.57391      8.34224      5.11955    699.11978     29.65694    151.50000    158.00000     69.00000     14.28000      0.00000      0.00000      0.00000      0.00000      0.00000      0.24983      0.12492    646.36742   3434.60241   3574.00000  11945.99991    110.00000      1.58401
       5307.02520   5304.84189     13.78281     70.02793      8.50000      8.57549      8.33067      4.99348    692.81346     35.48439    139.00000    151.00000     66.00000     12.40000      0.00000      0.00000      0.00000      -999.25      -999.25      0.24983      0.12492    646.36742   3449.73855      -999.25  11945.99991    110.00000      1.58396
       5307.17760   5304.99429     14.25516     76.49636      8.50000      8.60764      8.33836      4.78742    695.74671     32.31401    173.00000    140.00000     96.00000     18.93000      0.00000      0.00000      0.00000      0.00000      0.00000      0.24983      0.12492    651.37797   3403.98494   3591.00000  11954.99950    110.00000      1.58513
       5307.33000   5305.14668     14.05045     73.62045      8.50000      8.58879      8.37739      4.67538    696.57300     31.73404    150.50000    146.00000    111.00000     14.78000      0.00000      0.00000      0.00000      -999.25      -999.25      0.24983      0.12492    646.36742   3426.56442      -999.25  11967.99923    110.00000      1.58678
       5307.48240   5305.29908     14.33927     65.57211      8.50000      8.59624      8.35322      4.50445    694.16027     34.14744      -999.25    146.00000     63.00000     17.43000      0.00000      0.00000      0.00000      0.00000      0.00000      0.24983      0.12492    646.36742   3443.77024   3591.00000  11952.99943    110.00000      1.58475
