~VERSION INFORMATION 
VERS  .    2.0                                     :CWLS Log ASCII Standard - VERSION 2.0
WRAP  .    NO                                      :One Line per Depth step
PROD  .    Schlumberger Technology Corp.           :LAS Producer
PROG  .    Horizon LASWriter 10.1.205256.3100      :LAS Program name and version
SOURCE.    Run8_8.5in-Drilling                     :Run&Pass Information
CREA  .    01/07/2021                              :LAS Creation date {MM/DD/YYYY}
#--------------------------------------------------
~WELL INFORMATION 
#MNEM           .UNIT                      DATA            :DESCRIPTION
#----            ------          --------------            -----------------------------
STRT            .m                   5149.90080            :START DEPTH
STOP            .m                   5618.07360            :STOP DEPTH
STEP            .m                       0.1524            :STEP
NULL            .                       -999.25            :NULL VALUE
COMP            .                BP Development Australia Pty Ltd:COMPANY
WELL            .                    Ironbark-1            :WELL NAME
FLD             .                      Ironbark            :FIELD NAME
RIGN            .                    Ocean Apex            :Rig Name
RIGTYP          .                Semi-Submersible          :Rig Type
SON             .                     20AWA0029            :Service Order Number
SRVC            .                  Schlumberger            :SERVICE COMPANY
DATE            .                    12/25/2020            :LOG DATE(Composite Date for Composite LAP) (MM/DD/YYYY)
CLAB            .                       County:            :County Label
CNTY            .                                          :COUNTY
SLAB            .                        State:            :State/Province Label
STAT            .                Western Australia         :STATE or PROVINCE
PROV            .                Western Australia         :STATE or PROVINCE
CTRY            .                     Australia            :COUNTRY
CONT_REGION     .                   Australasia            :Continent Region
SECT            .                                          :Section
TOWN            .                                          :Township
RANG            .                                          :Range
API             .                                          :API NUMBER
UWI             .                     20AWA0029            :UNIQUE WELL ID
LUL             .                 Portside Deck            :Logging Unit Location
LUN             .                       1010979            :Logging Unit Number
LOC             .                      WA-359-P            :FIELD LOCATION
FL1             .                Northing: 7,881,270.990 m :Field Location Line 1
FL2             .                Easting: 402,902.910 m    :Field Location Line 2
LATI            .deg             19° 9' 34.079" S          :LATITUDE
LONG            .deg             116° 4' 35.795" E         :LONGITUDE
PDAT            .                           MSL            :Local Permanent Datum
LMF             .                            DF            :Logging Measured From
APD             .m                     23.85000            :Elevation of Depth Reference (LMF) Above Permanent Datum
EPD             .m                      0.00000            :Elevation of Permanent Datum (PDAT) above Mean Sea Level
EKB             .m                      -999.25            :Elevation of Kelly Bushing Above Permanent Datum
EDF             .m                     23.85000            :Elevation of Drill Floor Above Permanent Datum
EGL             .m                   -300.95000            :Elevation of Ground Level Above Permanent Datum
ECF             .m                      -999.25            :Elevation of Casing Flange above Permanent Datum
#--------------------------------------------------
~CURVE INFORMATION
#MNEM           .UNIT                  API CODE            :DESCRIPTION
#----            ------          --------------            -----------------------------
DEPT            .m                                         :                                                        Depth Index
TVD             .m                                         :(RT)    (DnMWorkflow)           (6in)                   True Vertical Depth
ROP5            .m/h                                       :(RT)    (DRILLING_SURFACE)      (6in)                   Rate of penetration averaged over the last 5 ft (1.5 m)
GR              .gAPI                                      :(RM)    (ARC6)                  (6in)                   Gamma Ray
BS              .in                                        :(RT)    (Borehole)              (6in)                   Bit Size
ADIA            .in                                        :(RM)    (ADN6C)                 (6in)                   Average Borehole Diameter
DCAV            .in                                        :(RM)    (ADN6C)                 (6in)                   Density Caliper, Average - filtered if Orion compressed
BLKP            .m                                         :(RT)    (DRILLING_SURFACE)      (6in)                   Height of block above rig floor
HKLA            .1000 lbf                                  :(RT)    (DRILLING_SURFACE)      (6in)                   Average Hookload
SWOB            .1000 lbf                                  :(RT)    (DRILLING_SURFACE)      (6in)                   Surface Weight On Bit
CRPM            .c/min                                     :(RM)    (TELE675)               (6in)                   Collar Rotational Speed
RPM             .c/min                                     :(RT)    (DRILLING_SURFACE)      (6in)                   Rotational Speed
STICKNSLIP      .c/min                                     :(RM)    (TELE675)               (6in)                   Stick Slip Indicator
STOR            .1000 ft.lbf                               :(RT)    (DRILLING_SURFACE)      (6in)                   Surface Torque
SHKL            .                                          :(RM)    (ADN6C)                 (6in)                   Tool Shock Level
SHKL            .                                          :(RM)    (ARC6)                  (6in)                   Tool Shock Level
SHKL            .                                          :(RM)    (SONICVISION6)          (6in)                   Tool Shock Level
SHKRSK          .                                          :(RM)    (TELE675)               (6in)                   Shock Risk
SHOCKS_ACC      .                                          :(RM)    (TELE675)               (6in)                   Total Shocks accumulated over tool lifetime
VIB_LAT         .gn                                        :(RM)    (TELE675)               (6in)                   Transverse RMS Vibration
VIB_X           .gn                                        :(RM)    (TELE675)               (6in)                   RMS Vibration, X-Axis
TFLO            .gal/min                                   :(RT)    (DRILLING_SURFACE)      (6in)                   Total flow rate of all active pumps
SPPA            .psi                                       :(RT)    (DRILLING_SURFACE)      (6in)                   Standpipe Pressure
TRPM            .c/min                                     :(RM)    (TELE675)               (6in)                   MWD Turbine Rotation Speed
DHAP            .psi                                       :(RM)    (ARC6)                  (6in)                   Downhole Annulus Pressure
DHAT            .degC                                      :(RM)    (ARC6)                  (6in)                   Downhole Annulus Temperature
ECD             .g/cm3                                     :(RM)    (ARC6)                  (6in)                   Equivalent Circulating Density
#-------------------------------------------------------------
#            DEPT          TVD         ROP5           GR           BS         ADIA         DCAV         BLKP         HKLA         SWOB         CRPM          RPM   STICKNSLIP         STOR         SHKL         SHKL         SHKL       SHKRSK   SHOCKS_ACC      VIB_LAT        VIB_X         TFLO         SPPA         TRPM         DHAP         DHAT          ECD 
#                  (DnMWorkfl)  (DRILLING_)       (ARC6)   (Borehole)      (ADN6C)      (ADN6C)  (DRILLING_)  (DRILLING_)  (DRILLING_)    (TELE675)  (DRILLING_)    (TELE675)  (DRILLING_)      (ADN6C)       (ARC6)  (SONICVISI)    (TELE675)    (TELE675)    (TELE675)    (TELE675)  (DRILLING_)  (DRILLING_)    (TELE675)       (ARC6)       (ARC6)       (ARC6) 
#                         (RT)         (RT)         (RM)         (RT)         (RM)         (RM)         (RT)         (RT)         (RT)         (RM)         (RT)         (RM)         (RT)         (RM)         (RM)         (RM)         (RM)         (RM)         (RM)         (RM)         (RT)         (RT)         (RM)         (RM)         (RM)         (RM) 
#                        (6in)        (6in)        (6in)        (6in)        (6in)        (6in)        (6in)        (6in)        (6in)        (6in)        (6in)        (6in)        (6in)        (6in)        (6in)        (6in)        (6in)        (6in)        (6in)        (6in)        (6in)        (6in)        (6in)        (6in)        (6in)        (6in) 
~ASCII
# ...
       5584.54560   5582.36035     26.25577    132.07190      8.50000      -999.25      -999.25      7.96661    696.52009     32.11328    138.80000    141.00000     73.20000     21.73000      0.00000      0.00000      0.00000      0.00000      0.00000      0.24983      0.12492    651.37797   3604.92022   3605.33300  12689.99999    118.00000      1.59892
       5584.69800   5582.51275     15.13548    122.90320      8.50000      -999.25      -999.25      7.83525    708.82784     19.52395    129.00000    147.00000     33.00000     11.90000      -999.25      0.00000      0.00000      -999.25      -999.25      0.24983      0.12492    651.37797   3585.35173      -999.25  12717.00022    118.00000      1.60230
       5584.85040   5582.66515     13.76539    110.87700      8.50000      -999.25      -999.25      7.66063    706.15716     22.68826    142.00000    145.00000     42.00000     10.57000      -999.25      0.00000      0.00000      0.00000      0.00000      0.24983      0.12492    651.37797   3601.92229   3618.00000  12698.99958    118.00000      1.59998
       5585.00280   5582.81755     15.91590     96.99226      8.50000      -999.25      -999.25      7.50854    701.67274     26.68142    137.00000    141.00000     42.00000     14.18000      -999.25      0.00000      0.00000      0.00000      0.00000      0.24983      0.12492    656.38853   3588.24668   3614.00000  12731.00071    118.00000      1.60399
       5585.15520   5582.96995     12.31972     87.67814      8.50000      -999.25      -999.25      7.39511    706.01606     22.27086    128.00000    145.00000     28.50000     11.19000      -999.25      0.00000      0.00000      0.00000      0.00000      0.24983      0.12492    651.37797   3600.72863   3623.00000  12736.99947    118.00000      1.60471
       5585.30760   5583.12235     11.53689     84.79787      8.50000      -999.25      -999.25      7.20186    698.25138     30.17553    135.50000    142.00000     36.00000     13.86000      -999.25      0.00000      0.00000      0.00000      0.00000      0.24983      0.12492    651.37797   3583.67074   3611.00000  12746.99982    118.00000      1.60589
       5585.46000   5583.27475     10.14560     82.88037      8.50000      -999.25      -999.25      7.10295    700.38039     27.95433    140.00000    143.00000     33.00000     13.84000      -999.25      0.00000      0.00000      -999.25      -999.25      0.24983      0.12492    651.37797   3600.98390      -999.25  12736.00016    118.00000      1.60448
       5585.61240   5583.42715      9.31139     81.87806      8.50000      -999.25      -999.25      6.93633    703.22104     25.05205    141.33330    148.00000    175.50000     11.78000      -999.25      0.00000      0.00000      0.00000      0.00000      0.24983      0.12492    651.37797   3575.10046   3602.50000  12721.00036    118.00000      1.60252
       5585.76480   5583.57955      9.05138     83.44975      8.50000      -999.25      -999.25      6.76584    702.03253     26.72499    134.00000    142.00000    157.50000     12.40000      -999.25      0.00000      0.00000      -999.25      -999.25      0.24983      0.12492    651.37797   3592.62973      -999.25  12729.00064    118.00000      1.60350
       5585.91720   5583.73194      8.43414     88.85022      8.50000      -999.25      -999.25      6.65031    703.68776     23.41135    144.00000    143.00000     78.00000     12.38000      -999.25      0.00000      0.00000      0.00000      0.00000      0.24983      0.12492    651.37797   3585.40540   3620.00000  12732.00002    118.00000      1.60382
       5586.06960   5583.88434      8.31012     98.07166      8.50000      -999.25      -999.25      6.44907    699.07922     29.54305    132.00000    147.00000     69.00000     11.54000      -999.25      0.00000      0.00000      0.00000      0.00000      0.24983      0.12492    651.37797   3599.50451   3618.00000  12723.00043    118.00000      1.60267
       5586.22200   5584.03674      9.41177    112.70620      8.50000      -999.25      -999.25      6.35939    709.71454     18.61595    133.00000    138.00000     99.00000     18.95000      -999.25      0.00000      0.00000      0.00000      0.00000      0.24983      0.12492    651.37797   3575.66321   3599.00000  12719.00029    118.00000      1.60212
       5586.37440   5584.18914      9.84954    128.37920      8.50000      -999.25      -999.25      6.17779    705.90407     22.45699    123.00000    135.00000      -999.25     23.13000      -999.25      0.00000      -999.25      -999.25      -999.25      0.24983      0.12492    651.37797   3566.90728      -999.25  12719.00029    118.00000      1.60206
       5586.52680   5584.34154     10.54844    131.76790      8.50000      -999.25      -999.25      6.00372    710.30648     18.02058      -999.25    143.00000    144.00000     21.49000      -999.25      0.00000      0.00000      -999.25      -999.25      -999.25      -999.25    651.37797   3589.92187      -999.25  12711.00001    118.00000      1.60100
       5586.67920   5584.49394     12.72437    125.06430      8.50000      -999.25      -999.25      5.87764    711.37771     17.19122    136.00000    141.00000     69.00000     22.31000      -999.25      0.00000      0.00000      0.00000      0.00000      0.24983      0.12492    651.37797   3605.03480   3598.00000  12715.00015    118.00000      1.60148
       5586.83160   5584.64634     13.70421    119.67010      8.50000      -999.25      -999.25      5.69720    707.74802     21.64398      -999.25    143.00000      -999.25     20.58000      -999.25      0.00000      0.00000      -999.25      -999.25      -999.25      -999.25    651.37797   3608.61724      -999.25  12711.00001    118.00000      1.60091
       5586.98400   5584.79874     16.19082    121.19190      8.50000      -999.25      -999.25      5.57593    708.40036     20.19191    140.00000    145.00000      -999.25     19.77000      -999.25      0.00000      0.00000      -999.25      -999.25      0.24983      0.12492    651.37797   3621.00056      -999.25  12648.99927    118.00000      1.59306
       5587.13640   5584.95114     19.00591    131.61480      8.50000      -999.25      -999.25      5.39184    708.50530     19.92355      -999.25    140.00000     30.00000     22.04000      -999.25      0.00000      0.00000      -999.25      -999.25      -999.25      -999.25    651.37797   3618.06499      -999.25  12719.99960    118.00000      1.60195
       5587.28880   5585.10354     21.51398    142.57720      8.50000      -999.25      -999.25      5.25722    706.27026     21.92820    149.00000    143.00000      -999.25     20.31000      -999.25      0.00000      0.00000      -999.25      -999.25      -999.25      -999.25    656.38853   3620.25796      -999.25  12738.99954    118.00000      1.60431
       5587.44120   5585.25594     24.30791    145.65610      8.50000      -999.25      -999.25      5.09782    703.81739     23.81037    169.00000    146.00000     70.50000     15.94000      -999.25      0.00000      0.00000      0.00000      0.00000      0.24983      0.12492    651.37797   3646.00796   3614.00000  12736.99947    118.00000      1.60403
       5587.59360   5585.40834     21.06353    144.87880      8.50000      -999.25      -999.25      4.93734    706.52445     21.32250    158.00000    146.00000    108.00000     14.73000      -999.25      0.00000      0.00000      0.00000      0.00000      0.24983      0.12492    651.37797   3632.98067   3626.00000  12734.99940    118.00000      1.60375
       5587.74600   5585.56073     27.99130    144.66080      8.50000      -999.25      -999.25      4.79192    702.49286     26.20774    142.00000    142.00000    147.00000     16.37000      -999.25      0.00000      0.00000      -999.25      -999.25      0.24983      0.12492    656.38853   3617.61683      -999.25  12727.99988    118.00000      1.60281
       5587.89840   5585.71313     26.05618    148.74240      8.50000      -999.25      -999.25      4.64674    703.29600     25.00238    122.00000    144.00000      -999.25     14.18000      -999.25      0.00000      0.00000      0.00000      0.00000      0.24983      0.12492    651.37797   3605.29152   3626.00000  12721.99967    118.00000      1.60199
