~VERSION INFORMATION 
VERS  .    2.0                                     :CWLS Log ASCII Standard - VERSION 2.0
WRAP  .    NO                                      :One Line per Depth step
PROD  .    Schlumberger Technology Corp.           :LAS Producer
PROG  .    Horizon LASWriter 10.1.205256.3100      :LAS Program name and version
SOURCE.    Run8_8.5in-Drilling                     :Run&Pass Information
CREA  .    01/07/2021                              :LAS Creation date {MM/DD/YYYY}
#--------------------------------------------------
~WELL INFORMATION 
#MNEM           .UNIT                      DATA            :DESCRIPTION
#----            ------          --------------            -----------------------------
STRT            .m                   5149.90080            :START DEPTH
STOP            .m                   5618.07360            :STOP DEPTH
STEP            .m                       0.1524            :STEP
NULL            .                       -999.25            :NULL VALUE
COMP            .                BP Development Australia Pty Ltd:COMPANY
WELL            .                    Ironbark-1            :WELL NAME
FLD             .                      Ironbark            :FIELD NAME
RIGN            .                    Ocean Apex            :Rig Name
RIGTYP          .                Semi-Submersible          :Rig Type
SON             .                     20AWA0029            :Service Order Number
SRVC            .                  Schlumberger            :SERVICE COMPANY
DATE            .                    12/25/2020            :LOG DATE(Composite Date for Composite LAP) (MM/DD/YYYY)
CLAB            .                       County:            :County Label
CNTY            .                                          :COUNTY
SLAB            .                        State:            :State/Province Label
STAT            .                Western Australia         :STATE or PROVINCE
PROV            .                Western Australia         :STATE or PROVINCE
CTRY            .                     Australia            :COUNTRY
CONT_REGION     .                   Australasia            :Continent Region
SECT            .                                          :Section
TOWN            .                                          :Township
RANG            .                                          :Range
API             .                                          :API NUMBER
UWI             .                     20AWA0029            :UNIQUE WELL ID
LUL             .                 Portside Deck            :Logging Unit Location
LUN             .                       1010979            :Logging Unit Number
LOC             .                      WA-359-P            :FIELD LOCATION
FL1             .                Northing: 7,881,270.990 m :Field Location Line 1
FL2             .                Easting: 402,902.910 m    :Field Location Line 2
LATI            .deg             19° 9' 34.079" S          :LATITUDE
LONG            .deg             116° 4' 35.795" E         :LONGITUDE
PDAT            .                           MSL            :Local Permanent Datum
LMF             .                            DF            :Logging Measured From
APD             .m                     23.85000            :Elevation of Depth Reference (LMF) Above Permanent Datum
EPD             .m                      0.00000            :Elevation of Permanent Datum (PDAT) above Mean Sea Level
EKB             .m                      -999.25            :Elevation of Kelly Bushing Above Permanent Datum
EDF             .m                     23.85000            :Elevation of Drill Floor Above Permanent Datum
EGL             .m                   -300.95000            :Elevation of Ground Level Above Permanent Datum
ECF             .m                      -999.25            :Elevation of Casing Flange above Permanent Datum
#--------------------------------------------------
~CURVE INFORMATION
#MNEM           .UNIT                  API CODE            :DESCRIPTION
#----            ------          --------------            -----------------------------
DEPT            .m                                         :                                                        Depth Index
TVD             .m                                         :(RT)    (DnMWorkflow)           (6in)                   True Vertical Depth
ROP5            .m/h                                       :(RT)    (DRILLING_SURFACE)      (6in)                   Rate of penetration averaged over the last 5 ft (1.5 m)
GR              .gAPI                                      :(RM)    (ARC6)                  (6in)                   Gamma Ray
BS              .in                                        :(RT)    (Borehole)              (6in)                   Bit Size
ADIA            .in                                        :(RM)    (ADN6C)                 (6in)                   Average Borehole Diameter
DCAV            .in                                        :(RM)    (ADN6C)                 (6in)                   Density Caliper, Average - filtered if Orion compressed
BLKP            .m                                         :(RT)    (DRILLING_SURFACE)      (6in)                   Height of block above rig floor
HKLA            .1000 lbf                                  :(RT)    (DRILLING_SURFACE)      (6in)                   Average Hookload
SWOB            .1000 lbf                                  :(RT)    (DRILLING_SURFACE)      (6in)                   Surface Weight On Bit
CRPM            .c/min                                     :(RM)    (TELE675)               (6in)                   Collar Rotational Speed
RPM             .c/min                                     :(RT)    (DRILLING_SURFACE)      (6in)                   Rotational Speed
STICKNSLIP      .c/min                                     :(RM)    (TELE675)               (6in)                   Stick Slip Indicator
STOR            .1000 ft.lbf                               :(RT)    (DRILLING_SURFACE)      (6in)                   Surface Torque
SHKL            .                                          :(RM)    (ADN6C)                 (6in)                   Tool Shock Level
SHKL            .                                          :(RM)    (ARC6)                  (6in)                   Tool Shock Level
SHKL            .                                          :(RM)    (SONICVISION6)          (6in)                   Tool Shock Level
SHKRSK          .                                          :(RM)    (TELE675)               (6in)                   Shock Risk
SHOCKS_ACC      .                                          :(RM)    (TELE675)               (6in)                   Total Shocks accumulated over tool lifetime
VIB_LAT         .gn                                        :(RM)    (TELE675)               (6in)                   Transverse RMS Vibration
VIB_X           .gn                                        :(RM)    (TELE675)               (6in)                   RMS Vibration, X-Axis
TFLO            .gal/min                                   :(RT)    (DRILLING_SURFACE)      (6in)                   Total flow rate of all active pumps
SPPA            .psi                                       :(RT)    (DRILLING_SURFACE)      (6in)                   Standpipe Pressure
TRPM            .c/min                                     :(RM)    (TELE675)               (6in)                   MWD Turbine Rotation Speed
DHAP            .psi                                       :(RM)    (ARC6)                  (6in)                   Downhole Annulus Pressure
DHAT            .degC                                      :(RM)    (ARC6)                  (6in)                   Downhole Annulus Temperature
ECD             .g/cm3                                     :(RM)    (ARC6)                  (6in)                   Equivalent Circulating Density
#-------------------------------------------------------------
#            DEPT          TVD         ROP5           GR           BS         ADIA         DCAV         BLKP         HKLA         SWOB         CRPM          RPM   STICKNSLIP         STOR         SHKL         SHKL         SHKL       SHKRSK   SHOCKS_ACC      VIB_LAT        VIB_X         TFLO         SPPA         TRPM         DHAP         DHAT          ECD 
#                  (DnMWorkfl)  (DRILLING_)       (ARC6)   (Borehole)      (ADN6C)      (ADN6C)  (DRILLING_)  (DRILLING_)  (DRILLING_)    (TELE675)  (DRILLING_)    (TELE675)  (DRILLING_)      (ADN6C)       (ARC6)  (SONICVISI)    (TELE675)    (TELE675)    (TELE675)    (TELE675)  (DRILLING_)  (DRILLING_)    (TELE675)       (ARC6)       (ARC6)       (ARC6) 
#                         (RT)         (RT)         (RM)         (RT)         (RM)         (RM)         (RT)         (RT)         (RT)         (RM)         (RT)         (RM)         (RT)         (RM)         (RM)         (RM)         (RM)         (RM)         (RM)         (RM)         (RT)         (RT)         (RM)         (RM)         (RM)         (RM) 
#                        (6in)        (6in)        (6in)        (6in)        (6in)        (6in)        (6in)        (6in)        (6in)        (6in)        (6in)        (6in)        (6in)        (6in)        (6in)        (6in)        (6in)        (6in)        (6in)        (6in)        (6in)        (6in)        (6in)        (6in)        (6in)        (6in) 
~ASCII
# ...
       5430.31680   5428.13209      5.96462     99.89391      8.50000      8.61744      8.33838     21.08129    708.50134     18.66218    126.50000    133.00000     37.50000     10.17000      0.00000      0.00000      0.00000      0.00000      0.00000      0.24983      0.12492    641.35687   3379.69402   3549.00000  12248.99970    115.00000      1.58722
       5430.46920   5428.28449      5.98864     91.89996      8.50000      8.60842      8.39758     20.92638    701.78076     24.01711    121.66670    128.00000     34.00000     12.06000      0.00000      0.00000      0.00000      0.00000      0.00000      0.24983      0.12492    641.35687   3379.54318   3546.50000  12259.00005    115.00000      1.58848
       5430.62160   5428.43689      5.34581     87.57350      8.50000      8.58686      8.37290     20.75314    708.63009     16.78349    124.88890    128.00000     25.87500     11.80000      0.00000      0.00000      0.00000      0.00000      0.00000      0.24983      0.12492    641.35687   3364.89872   3547.00000  12252.99984    115.00000      1.58765
       5430.77400   5428.58929      4.81737    100.09640      8.50000      8.56451      8.33619     20.59394    711.41496     15.38087    128.00000    128.00000     28.00000     10.91000      0.00000      0.00000      0.00000      0.00000      0.00000      0.24983      0.12492    641.35687   3374.41465   3545.00000  12280.00006    115.00000      1.59112
       5430.92640   5428.74169      4.87053    117.17860      8.50000      8.56580      8.31615     20.42484    705.13620     19.06495    119.00000    126.00000     51.00000     13.88000      0.00000      0.00000      0.00000      0.00000      0.00000      0.24983      0.12492    641.35687   3372.61328   3548.00000  12274.26092    115.00000      1.59034
       5431.07880   5428.89409      5.21637    125.92040      8.50000      8.56679      8.32031     20.25230    703.89941     22.82404    131.00000    125.00000    129.00000     12.10000      0.00000      0.00000      0.00000      -999.25      -999.25      0.24983      0.12492    641.35687   3366.52169      -999.25  12290.99973    115.00000      1.59244
       5431.23120   5429.04649      5.21070    134.31470      8.50000      8.54804      8.33623     20.12062    710.01944     16.12654    118.75000    127.00000     84.00000     13.56000      0.00000      0.00000      0.00000      0.00000      0.00000      0.12492      0.06246    641.35687   3381.97837   3547.50000  12281.00082    115.00000      1.59110
       5431.38360   5429.19889      5.62935    142.07850      8.50000      8.58020      8.37926     19.94317    709.28772     16.49117    124.00000    124.00000     63.00000     13.56000      0.00000      0.00000      0.00000      0.00000      0.00000      0.12492      0.12492    641.35687   3387.09385   3545.00000  12275.00061    115.00000      1.59028
       5431.53600   5429.35129      5.64962    143.99980      8.50000      8.57069      8.46799     19.80598    712.64845     13.30891     99.00000    130.00000    127.50000     11.19000      0.00000      0.00000      0.00000      0.00000      0.00000      0.00000      0.12492    641.35687   3353.20288   3546.00000  12254.00060    115.00000      1.58752
       5431.68840   5429.50369      5.89854    142.48160      8.50000      8.52843      8.41241     19.62001    717.38751      9.04192    125.00000    142.00000    141.00000     12.09000      0.00000      0.00000      0.00000      -999.25      -999.25      0.24983      0.12492    641.35687   3404.57089      -999.25  12284.99951    115.00000      1.59150
       5431.84080   5429.65609      6.81462    141.76860      8.50000      8.53391      8.34883     19.49516    713.96395     11.77507    135.00000    128.00000    141.00000     13.84000      0.00000      0.00000      0.00000      0.00000      0.00000      0.24983      0.12492    641.35687   3388.95323   3550.00000  12315.00057    115.00000      1.59533
       5431.99320   5429.80849      7.19097    144.12510      8.50000      8.54484      8.33081     19.32760    711.08273     14.71850      -999.25    127.00000      -999.25     13.27000      0.00000      0.00000      0.00000      -999.25      -999.25      -999.25      -999.25    641.35687   3384.90088      -999.25  12296.00063    115.00000      1.59282
       5432.14560   5429.96089      8.83602    148.20360      8.50000      8.55578      8.34861     19.19747    710.62791     15.92706    127.00000    116.00000     78.00000     15.88000      0.00000      0.00000      0.00000      -999.25      -999.25      0.24983      0.12492    641.35687   3349.13457      -999.25  12277.00068    115.00000      1.59032
       5432.29800   5430.11329     10.70235    152.85060      8.50000      8.56765      8.36628     19.01687    712.01881     13.87502    109.00000    139.00000    108.00000      7.63000      0.00000      0.00000      0.00000      0.00000      0.00000      0.24983      0.12492    641.35687   3410.22301   3542.00000  12290.99973    115.00000      1.59208
       5432.45040   5430.26569     11.55717    155.49710      8.50000      8.54293      8.35828     18.89279    715.99066     10.18024    120.00000    135.00000      -999.25     10.28000      0.00000      0.00000      0.00000      -999.25      -999.25      0.24983      0.12492    641.35687   3400.98266      -999.25  12267.99964    115.00000      1.58906
       5432.60280   5430.41809     12.51460    154.65540      8.50000      8.53692      8.34803     18.67691    712.74259     12.35793    117.00000    137.00000    108.00000     12.68000      0.00000      0.00000      0.00000      0.00000      0.00000      0.24983      0.12492    641.35687   3407.50791   3543.00000  12263.00019    115.00000      1.58837
       5432.75520   5430.57049     14.55133    153.43100      8.50000      8.54802      8.35119     18.59685    711.71634     13.89748      -999.25    114.00000    102.00000     15.61000      0.00000      0.00000      0.00000      -999.25      -999.25      -999.25      -999.25    641.35687   3365.59635      -999.25  12263.99950    115.00000      1.58845
       5432.90760   5430.72289     15.88067    153.29230      8.50000      8.54846      8.33434     18.40897    709.89730     15.31833    145.00000    108.00000    231.00000     17.40000      0.00000      0.00000      0.00000      -999.25      -999.25      0.24983      0.12492    641.35687   3363.74857      -999.25  12265.99957    115.00000      1.58867
       5433.06000   5430.87529     17.36201    150.83480      8.50000      8.54216      8.32635     18.24862    714.89143     10.70056      -999.25    137.00000    231.00000     11.43000      0.00000      0.00000      0.00000      0.00000      0.00000      0.24983      0.12492    641.35687   3404.96830   3544.00000  12259.00005    115.00000      1.58772
       5433.21240   5431.02769     18.96841    139.75350      8.50000      8.54412      8.33103     18.09831    717.82733      8.70922      -999.25    132.00000      -999.25     13.27000      0.00000      0.00000      0.00000      -999.25      -999.25      -999.25      -999.25    641.35687   3391.95261      -999.25  12275.00061    115.00000      1.58975
       5433.36480   5431.18009     20.52031    122.38440      8.50000      8.55843      8.34875     17.94148    716.25896      9.31810    115.00000    127.00000      -999.25     13.40000      0.00000      0.00000      0.00000      -999.25      -999.25      0.24983      0.12492    641.35687   3404.84211      -999.25  12265.99957    115.00000      1.58853
       5433.51720   5431.33249     20.87167    120.86470      8.50000      8.56686      8.56593     17.76234    715.60132     10.17080      -999.25    134.00000     93.00000     14.40000      0.00000      0.00000      0.00000      -999.25      -999.25      -999.25      -999.25    641.35687   3401.61067      -999.25  12265.00026    115.00000      1.58837
       5433.66960   5431.48489     22.08176    139.71440      8.50000      8.56176      8.69281     17.59394    710.57589     15.75049    145.00000    134.00000     93.00000     11.18000      0.00000      0.00000      0.00000      0.00000      0.00000      0.24983      0.12492    641.35687   3429.12868   3554.00000  12263.99950    115.00000      1.58820
