~VERSION INFORMATION 
VERS  .    2.0                                     :CWLS Log ASCII Standard - VERSION 2.0
WRAP  .    NO                                      :One Line per Depth step
PROD  .    Schlumberger Technology Corp.           :LAS Producer
PROG  .    Horizon LASWriter 10.1.205256.3100      :LAS Program name and version
SOURCE.    Run8_8.5in-Drilling                     :Run&Pass Information
CREA  .    01/07/2021                              :LAS Creation date {MM/DD/YYYY}
#--------------------------------------------------
~WELL INFORMATION 
#MNEM           .UNIT                      DATA            :DESCRIPTION
#----            ------          --------------            -----------------------------
STRT            .m                   5149.90080            :START DEPTH
STOP            .m                   5618.07360            :STOP DEPTH
STEP            .m                       0.1524            :STEP
NULL            .                       -999.25            :NULL VALUE
COMP            .                BP Development Australia Pty Ltd:COMPANY
WELL            .                    Ironbark-1            :WELL NAME
FLD             .                      Ironbark            :FIELD NAME
RIGN            .                    Ocean Apex            :Rig Name
RIGTYP          .                Semi-Submersible          :Rig Type
SON             .                     20AWA0029            :Service Order Number
SRVC            .                  Schlumberger            :SERVICE COMPANY
DATE            .                    12/25/2020            :LOG DATE(Composite Date for Composite LAP) (MM/DD/YYYY)
CLAB            .                       County:            :County Label
CNTY            .                                          :COUNTY
SLAB            .                        State:            :State/Province Label
STAT            .                Western Australia         :STATE or PROVINCE
PROV            .                Western Australia         :STATE or PROVINCE
CTRY            .                     Australia            :COUNTRY
CONT_REGION     .                   Australasia            :Continent Region
SECT            .                                          :Section
TOWN            .                                          :Township
RANG            .                                          :Range
API             .                                          :API NUMBER
UWI             .                     20AWA0029            :UNIQUE WELL ID
LUL             .                 Portside Deck            :Logging Unit Location
LUN             .                       1010979            :Logging Unit Number
LOC             .                      WA-359-P            :FIELD LOCATION
FL1             .                Northing: 7,881,270.990 m :Field Location Line 1
FL2             .                Easting: 402,902.910 m    :Field Location Line 2
LATI            .deg             19° 9' 34.079" S          :LATITUDE
LONG            .deg             116° 4' 35.795" E         :LONGITUDE
PDAT            .                           MSL            :Local Permanent Datum
LMF             .                            DF            :Logging Measured From
APD             .m                     23.85000            :Elevation of Depth Reference (LMF) Above Permanent Datum
EPD             .m                      0.00000            :Elevation of Permanent Datum (PDAT) above Mean Sea Level
EKB             .m                      -999.25            :Elevation of Kelly Bushing Above Permanent Datum
EDF             .m                     23.85000            :Elevation of Drill Floor Above Permanent Datum
EGL             .m                   -300.95000            :Elevation of Ground Level Above Permanent Datum
ECF             .m                      -999.25            :Elevation of Casing Flange above Permanent Datum
#--------------------------------------------------
~CURVE INFORMATION
#MNEM           .UNIT                  API CODE            :DESCRIPTION
#----            ------          --------------            -----------------------------
DEPT            .m                                         :                                                        Depth Index
TVD             .m                                         :(RT)    (DnMWorkflow)           (6in)                   True Vertical Depth
ROP5            .m/h                                       :(RT)    (DRILLING_SURFACE)      (6in)                   Rate of penetration averaged over the last 5 ft (1.5 m)
GR              .gAPI                                      :(RM)    (ARC6)                  (6in)                   Gamma Ray
BS              .in                                        :(RT)    (Borehole)              (6in)                   Bit Size
ADIA            .in                                        :(RM)    (ADN6C)                 (6in)                   Average Borehole Diameter
DCAV            .in                                        :(RM)    (ADN6C)                 (6in)                   Density Caliper, Average - filtered if Orion compressed
BLKP            .m                                         :(RT)    (DRILLING_SURFACE)      (6in)                   Height of block above rig floor
HKLA            .1000 lbf                                  :(RT)    (DRILLING_SURFACE)      (6in)                   Average Hookload
SWOB            .1000 lbf                                  :(RT)    (DRILLING_SURFACE)      (6in)                   Surface Weight On Bit
CRPM            .c/min                                     :(RM)    (TELE675)               (6in)                   Collar Rotational Speed
RPM             .c/min                                     :(RT)    (DRILLING_SURFACE)      (6in)                   Rotational Speed
STICKNSLIP      .c/min                                     :(RM)    (TELE675)               (6in)                   Stick Slip Indicator
STOR            .1000 ft.lbf                               :(RT)    (DRILLING_SURFACE)      (6in)                   Surface Torque
SHKL            .                                          :(RM)    (ADN6C)                 (6in)                   Tool Shock Level
SHKL            .                                          :(RM)    (ARC6)                  (6in)                   Tool Shock Level
SHKL            .                                          :(RM)    (SONICVISION6)          (6in)                   Tool Shock Level
SHKRSK          .                                          :(RM)    (TELE675)               (6in)                   Shock Risk
SHOCKS_ACC      .                                          :(RM)    (TELE675)               (6in)                   Total Shocks accumulated over tool lifetime
VIB_LAT         .gn                                        :(RM)    (TELE675)               (6in)                   Transverse RMS Vibration
VIB_X           .gn                                        :(RM)    (TELE675)               (6in)                   RMS Vibration, X-Axis
TFLO            .gal/min                                   :(RT)    (DRILLING_SURFACE)      (6in)                   Total flow rate of all active pumps
SPPA            .psi                                       :(RT)    (DRILLING_SURFACE)      (6in)                   Standpipe Pressure
TRPM            .c/min                                     :(RM)    (TELE675)               (6in)                   MWD Turbine Rotation Speed
DHAP            .psi                                       :(RM)    (ARC6)                  (6in)                   Downhole Annulus Pressure
DHAT            .degC                                      :(RM)    (ARC6)                  (6in)                   Downhole Annulus Temperature
ECD             .g/cm3                                     :(RM)    (ARC6)                  (6in)                   Equivalent Circulating Density
#-------------------------------------------------------------
#            DEPT          TVD         ROP5           GR           BS         ADIA         DCAV         BLKP         HKLA         SWOB         CRPM          RPM   STICKNSLIP         STOR         SHKL         SHKL         SHKL       SHKRSK   SHOCKS_ACC      VIB_LAT        VIB_X         TFLO         SPPA         TRPM         DHAP         DHAT          ECD 
#                  (DnMWorkfl)  (DRILLING_)       (ARC6)   (Borehole)      (ADN6C)      (ADN6C)  (DRILLING_)  (DRILLING_)  (DRILLING_)    (TELE675)  (DRILLING_)    (TELE675)  (DRILLING_)      (ADN6C)       (ARC6)  (SONICVISI)    (TELE675)    (TELE675)    (TELE675)    (TELE675)  (DRILLING_)  (DRILLING_)    (TELE675)       (ARC6)       (ARC6)       (ARC6) 
#                         (RT)         (RT)         (RM)         (RT)         (RM)         (RM)         (RT)         (RT)         (RT)         (RM)         (RT)         (RM)         (RT)         (RM)         (RM)         (RM)         (RM)         (RM)         (RM)         (RM)         (RT)         (RT)         (RM)         (RM)         (RM)         (RM) 
#                        (6in)        (6in)        (6in)        (6in)        (6in)        (6in)        (6in)        (6in)        (6in)        (6in)        (6in)        (6in)        (6in)        (6in)        (6in)        (6in)        (6in)        (6in)        (6in)        (6in)        (6in)        (6in)        (6in)        (6in)        (6in)        (6in) 
~ASCII
# ...
       5616.09240   5613.90699     29.85404      -999.25      8.50000      -999.25      -999.25      4.46702    707.38822     21.51975    154.00000    145.00000     78.00000     18.67000      -999.25      -999.25      -999.25      -999.25      -999.25      0.24983      0.12492    651.37797   3599.42619      -999.25      -999.25      -999.25      -999.25
       5616.24480   5614.05939     28.34606      -999.25      8.50000      -999.25      -999.25      4.29938    706.20765     22.71939    135.00000    148.00000     60.00000     15.35000      -999.25      -999.25      -999.25      0.00000      0.00000      0.24983      0.12492    651.37797   3592.71965   3585.00000      -999.25      -999.25      -999.25
       5616.39720   5614.21179     22.04631      -999.25      8.50000      -999.25      -999.25      4.15030    707.36640     21.53665    139.50000    140.00000     42.00000     16.26000      -999.25      -999.25      -999.25      0.00000      0.00000      0.24983      0.12492    651.37797   3604.95938   3586.00000      -999.25      -999.25      -999.25
       5616.54960   5614.36419     20.28663      -999.25      8.50000      -999.25      -999.25      3.99517    710.81928     18.10431      -999.25    139.00000      -999.25     14.18000      -999.25      -999.25      -999.25      -999.25      -999.25      -999.25      -999.25    646.36742   3573.50795      -999.25      -999.25      -999.25      -999.25
       5616.70200   5614.51659     23.04353      -999.25      8.50000      -999.25      -999.25      3.84379    707.72795     21.17587    138.50000    140.00000     57.00000     18.95000      -999.25      -999.25      -999.25      0.00000      0.00000      0.24983      0.12492    651.37797   3603.09130   3575.00000      -999.25      -999.25      -999.25
       5616.85440   5614.66899     20.59778      -999.25      8.50000      -999.25      -999.25      3.69164    708.86532     19.76725      -999.25    144.00000     57.00000     16.27000      -999.25      -999.25      -999.25      -999.25      -999.25      -999.25      -999.25    651.37797   3605.55549      -999.25      -999.25      -999.25      -999.25
       5617.00680   5614.82139     19.84276      -999.25      8.50000      -999.25      -999.25      3.53711    707.74383     21.22665    156.00000    146.00000     57.00000     17.41000      -999.25      -999.25      -999.25      -999.25      -999.25      0.24983      0.12492    646.36742   3586.18715      -999.25      -999.25      -999.25      -999.25
       5617.15920   5614.97379     19.51243      -999.25      8.50000      -999.25      -999.25      3.36449    709.29566     19.65291    146.00000    139.00000      -999.25     18.63000      -999.25      -999.25      -999.25      0.00000      0.00000      0.24983      0.12492    651.37797   3600.49077   3574.00000      -999.25      -999.25      -999.25
       5617.31160   5615.12619     20.14795      -999.25      8.50000      -999.25      -999.25      3.22523    709.33358     19.38570    142.00000    144.00000     48.00000     16.55000      -999.25      -999.25      -999.25      -999.25      -999.25      0.24983      0.12492    651.37797   3615.32233      -999.25      -999.25      -999.25      -999.25
       5617.46400   5615.27859     19.56661      -999.25      8.50000      -999.25      -999.25      3.07155    706.53062     22.46012      -999.25    152.00000     81.00000     15.95000      -999.25      -999.25      -999.25      -999.25      -999.25      -999.25      -999.25    651.37797   3583.66494      -999.25      -999.25      -999.25      -999.25
       5617.61640   5615.43099     18.50491      -999.25      8.50000      -999.25      -999.25      2.91472    707.52844     21.07552    128.00000    135.00000     81.00000     16.55000      -999.25      -999.25      -999.25      0.00000      0.00000      0.24983      0.12492    646.36742   3591.54049   3584.00000      -999.25      -999.25      -999.25
       5617.76880   5615.58339     18.74196      -999.25      8.50000      -999.25      -999.25      2.74509    708.46364     20.19687      -999.25    145.00000     66.00000     19.55000      -999.25      -999.25      -999.25      -999.25      -999.25      -999.25      -999.25    651.37797   3605.66282      -999.25      -999.25      -999.25      -999.25
       5617.92120   5615.73579     22.40186      -999.25      8.50000      -999.25      -999.25      2.59593    706.43384     22.33131    144.00000    131.00000     69.00000     22.13000      -999.25      -999.25      -999.25      0.00000      0.00000      0.24983      0.12492    646.36742   3609.01609   3582.00000      -999.25      -999.25      -999.25
       5618.07360   5615.88818     22.31246      -999.25      8.50000      -999.25      -999.25      2.45398    708.96475     19.82329    152.00000    132.00000      -999.25     22.86000      -999.25      -999.25      -999.25      -999.25      -999.25      0.24983      0.12492    651.37797   3563.08844      -999.25      -999.25      -999.25      -999.25
