~VERSION INFORMATION 
VERS  .    2.0                                     :CWLS Log ASCII Standard - VERSION 2.0
WRAP  .    NO                                      :One Line per Depth step
PROD  .    Schlumberger Technology Corp.           :LAS Producer
PROG  .    Horizon LASWriter 10.1.205256.3100      :LAS Program name and version
SOURCE.    Run8_8.5in-Drilling                     :Run&Pass Information
CREA  .    01/07/2021                              :LAS Creation date {MM/DD/YYYY}
#--------------------------------------------------
~WELL INFORMATION 
#MNEM           .UNIT                      DATA            :DESCRIPTION
#----            ------          --------------            -----------------------------
STRT            .m                   5149.90080            :START DEPTH
STOP            .m                   5618.07360            :STOP DEPTH
STEP            .m                       0.1524            :STEP
NULL            .                       -999.25            :NULL VALUE
COMP            .                BP Development Australia Pty Ltd:COMPANY
WELL            .                    Ironbark-1            :WELL NAME
FLD             .                      Ironbark            :FIELD NAME
RIGN            .                    Ocean Apex            :Rig Name
RIGTYP          .                Semi-Submersible          :Rig Type
SON             .                     20AWA0029            :Service Order Number
SRVC            .                  Schlumberger            :SERVICE COMPANY
DATE            .                    12/25/2020            :LOG DATE(Composite Date for Composite LAP) (MM/DD/YYYY)
CLAB            .                       County:            :County Label
CNTY            .                                          :COUNTY
SLAB            .                        State:            :State/Province Label
STAT            .                Western Australia         :STATE or PROVINCE
PROV            .                Western Australia         :STATE or PROVINCE
CTRY            .                     Australia            :COUNTRY
CONT_REGION     .                   Australasia            :Continent Region
SECT            .                                          :Section
TOWN            .                                          :Township
RANG            .                                          :Range
API             .                                          :API NUMBER
UWI             .                     20AWA0029            :UNIQUE WELL ID
LUL             .                 Portside Deck            :Logging Unit Location
LUN             .                       1010979            :Logging Unit Number
LOC             .                      WA-359-P            :FIELD LOCATION
FL1             .                Northing: 7,881,270.990 m :Field Location Line 1
FL2             .                Easting: 402,902.910 m    :Field Location Line 2
LATI            .deg             19° 9' 34.079" S          :LATITUDE
LONG            .deg             116° 4' 35.795" E         :LONGITUDE
PDAT            .                           MSL            :Local Permanent Datum
LMF             .                            DF            :Logging Measured From
APD             .m                     23.85000            :Elevation of Depth Reference (LMF) Above Permanent Datum
EPD             .m                      0.00000            :Elevation of Permanent Datum (PDAT) above Mean Sea Level
EKB             .m                      -999.25            :Elevation of Kelly Bushing Above Permanent Datum
EDF             .m                     23.85000            :Elevation of Drill Floor Above Permanent Datum
EGL             .m                   -300.95000            :Elevation of Ground Level Above Permanent Datum
ECF             .m                      -999.25            :Elevation of Casing Flange above Permanent Datum
#--------------------------------------------------
~CURVE INFORMATION
#MNEM           .UNIT                  API CODE            :DESCRIPTION
#----            ------          --------------            -----------------------------
DEPT            .m                                         :                                                        Depth Index
TVD             .m                                         :(RT)    (DnMWorkflow)           (6in)                   True Vertical Depth
ROP5            .m/h                                       :(RT)    (DRILLING_SURFACE)      (6in)                   Rate of penetration averaged over the last 5 ft (1.5 m)
GR              .gAPI                                      :(RM)    (ARC6)                  (6in)                   Gamma Ray
BS              .in                                        :(RT)    (Borehole)              (6in)                   Bit Size
ADIA            .in                                        :(RM)    (ADN6C)                 (6in)                   Average Borehole Diameter
DCAV            .in                                        :(RM)    (ADN6C)                 (6in)                   Density Caliper, Average - filtered if Orion compressed
BLKP            .m                                         :(RT)    (DRILLING_SURFACE)      (6in)                   Height of block above rig floor
HKLA            .1000 lbf                                  :(RT)    (DRILLING_SURFACE)      (6in)                   Average Hookload
SWOB            .1000 lbf                                  :(RT)    (DRILLING_SURFACE)      (6in)                   Surface Weight On Bit
CRPM            .c/min                                     :(RM)    (TELE675)               (6in)                   Collar Rotational Speed
RPM             .c/min                                     :(RT)    (DRILLING_SURFACE)      (6in)                   Rotational Speed
STICKNSLIP      .c/min                                     :(RM)    (TELE675)               (6in)                   Stick Slip Indicator
STOR            .1000 ft.lbf                               :(RT)    (DRILLING_SURFACE)      (6in)                   Surface Torque
SHKL            .                                          :(RM)    (ADN6C)                 (6in)                   Tool Shock Level
SHKL            .                                          :(RM)    (ARC6)                  (6in)                   Tool Shock Level
SHKL            .                                          :(RM)    (SONICVISION6)          (6in)                   Tool Shock Level
SHKRSK          .                                          :(RM)    (TELE675)               (6in)                   Shock Risk
SHOCKS_ACC      .                                          :(RM)    (TELE675)               (6in)                   Total Shocks accumulated over tool lifetime
VIB_LAT         .gn                                        :(RM)    (TELE675)               (6in)                   Transverse RMS Vibration
VIB_X           .gn                                        :(RM)    (TELE675)               (6in)                   RMS Vibration, X-Axis
TFLO            .gal/min                                   :(RT)    (DRILLING_SURFACE)      (6in)                   Total flow rate of all active pumps
SPPA            .psi                                       :(RT)    (DRILLING_SURFACE)      (6in)                   Standpipe Pressure
TRPM            .c/min                                     :(RM)    (TELE675)               (6in)                   MWD Turbine Rotation Speed
DHAP            .psi                                       :(RM)    (ARC6)                  (6in)                   Downhole Annulus Pressure
DHAT            .degC                                      :(RM)    (ARC6)                  (6in)                   Downhole Annulus Temperature
ECD             .g/cm3                                     :(RM)    (ARC6)                  (6in)                   Equivalent Circulating Density
#-------------------------------------------------------------
#            DEPT          TVD         ROP5           GR           BS         ADIA         DCAV         BLKP         HKLA         SWOB         CRPM          RPM   STICKNSLIP         STOR         SHKL         SHKL         SHKL       SHKRSK   SHOCKS_ACC      VIB_LAT        VIB_X         TFLO         SPPA         TRPM         DHAP         DHAT          ECD 
#                  (DnMWorkfl)  (DRILLING_)       (ARC6)   (Borehole)      (ADN6C)      (ADN6C)  (DRILLING_)  (DRILLING_)  (DRILLING_)    (TELE675)  (DRILLING_)    (TELE675)  (DRILLING_)      (ADN6C)       (ARC6)  (SONICVISI)    (TELE675)    (TELE675)    (TELE675)    (TELE675)  (DRILLING_)  (DRILLING_)    (TELE675)       (ARC6)       (ARC6)       (ARC6) 
#                         (RT)         (RT)         (RM)         (RT)         (RM)         (RM)         (RT)         (RT)         (RT)         (RM)         (RT)         (RM)         (RT)         (RM)         (RM)         (RM)         (RM)         (RM)         (RM)         (RM)         (RT)         (RT)         (RM)         (RM)         (RM)         (RM) 
#                        (6in)        (6in)        (6in)        (6in)        (6in)        (6in)        (6in)        (6in)        (6in)        (6in)        (6in)        (6in)        (6in)        (6in)        (6in)        (6in)        (6in)        (6in)        (6in)        (6in)        (6in)        (6in)        (6in)        (6in)        (6in)        (6in) 
~ASCII
# ...
       5493.41040   5491.22556     15.69361    174.57330      8.50000      8.63091      8.31028     13.77377    694.15299     34.04696    124.00000    140.00000     84.00000     20.31000      0.00000      0.00000      0.00000      0.00000      0.00000      0.24983      0.24983    646.36742   3482.29952   3580.00000  12428.00092    118.00000      1.59191
       5493.56280   5491.37796     15.39502    168.57170      8.50000      8.62411      8.32596     13.62477    699.60899     26.57423      -999.25    145.00000    123.00000     15.66000      0.00000      0.00000      0.00000      -999.25      -999.25      -999.25      -999.25    646.36742   3474.53420      -999.25  12431.00030    118.00000      1.59228
       5493.71520   5491.53035     15.68367    161.40240      8.50000      8.61313      8.30627     13.47024    694.66292     32.16344      -999.25    139.00000      -999.25     15.99000      0.00000      0.00000      0.00000      -999.25      -999.25      -999.25      -999.25    646.36742   3475.22603      -999.25  12415.99905    118.00000      1.59028
       5493.86760   5491.68275     15.58470    156.44110      8.50000      8.59823      8.32673     13.28213    696.31220     30.61286    130.00000    156.00000    177.00000     19.94000      0.00000      0.00000      0.00000      0.00000      0.00000      0.24983      0.24983    646.36742   3495.26444   3596.00000  12426.00085    118.00000      1.59152
       5494.02000   5491.83515     14.73308    154.58230      8.50000      8.58804      8.38706     13.17024    693.01254     34.04385    125.00000    141.00000    254.00000     13.86000      0.00000      0.00000      0.00000      0.00000      0.00000      0.24983      0.20819    646.36742   3474.33840   3608.00000  12414.99974    118.00000      1.59007
       5494.17240   5491.98755     13.97674    154.81050      8.50000      8.58882      8.37278     13.03412    700.82550     26.35902    143.00000    146.00000     87.00000     16.26000      0.00000      0.00000      0.00000      0.00000      0.00000      0.24983      0.12492    646.36742   3466.92262   3569.00000  12426.00085    118.00000      1.59145
       5494.32480   5492.13995     14.57083    154.84190      8.50000      8.62274      8.34180     12.86096    701.61123     25.20433      -999.25    140.00000      -999.25     19.19000      0.00000      0.00000      0.00000      -999.25      -999.25      -999.25      -999.25    646.36742   3482.67372      -999.25  12409.00098    118.00000      1.58921
       5494.47720   5492.29235     16.44111    157.97950      8.50000      8.63191      8.33828     12.72331    702.88396     24.00380    137.00000    141.00000     87.00000     20.86000      0.00000      0.00000      0.00000      -999.25      -999.25      0.24983      0.12492    646.36742   3490.96697      -999.25  12419.99919    118.00000      1.59058
       5494.62960   5492.44475     18.47090    163.54420      8.50000      8.62803      8.34045     12.57285    700.31425     25.51831      -999.25    137.00000      -999.25     22.59000      0.00000      0.00000      0.00000      -999.25      -999.25      -999.25      -999.25    646.36742   3492.04025      -999.25  12417.99912    118.00000      1.59027
       5494.78200   5492.59715     21.25111    164.68330      8.50000      8.65745      8.34486     12.42546    698.28952     28.26730      -999.25    142.00000      -999.25     18.34000      0.00000      0.00000      0.00000      -999.25      -999.25      -999.25      -999.25    646.36742   3503.34594      -999.25  12421.99926    118.00000      1.59074
       5494.93440   5492.74955     22.36798    162.43160      8.50000      8.62346      8.33572     12.26986    694.05996     32.87423      -999.25    135.00000      -999.25     21.09000      0.00000      0.00000      0.00000      -999.25      -999.25      -999.25      -999.25    646.36742   3490.60728      -999.25  12418.99988    103.00000      1.59032
       5495.08680   5492.90195     27.03492    161.18400      8.50000      8.60057      8.33302     12.10199    692.15031     34.96031    140.00000    147.00000      -999.25     19.50000      0.00000      0.00000      0.00000      0.00000      0.00000      0.24983      0.12492    646.36742   3513.26798   3573.00000  12410.00029    103.00000      1.58912
       5495.23920   5493.05435     24.20683    162.96360      8.50000      8.61000      8.33821     11.94854    694.88735     31.95045    145.00000    141.00000     67.50000     21.46000      0.00000      0.00000      0.00000      -999.25      -999.25      0.24983      0.12492    646.36742   3518.70689      -999.25  12417.99912    103.00000      1.59010
       5495.39160   5493.20675     24.32563    164.14660      8.50000      8.63405      8.36782     11.78934    699.50008     27.66281    122.00000    151.00000      -999.25     15.06000      0.00000      0.00000      0.00000      0.00000      0.00000      0.24983      0.12492    646.36742   3527.63106   3583.00000  12434.99899    103.00000      1.59223
       5495.54400   5493.35915     30.66443    163.70510      8.50000      8.62778      8.32308     11.67247    699.01021     27.77423      -999.25    134.00000    132.00000     20.58000      0.00000      0.00000      0.00000      -999.25      -999.25      -999.25      -999.25    646.36742   3521.04345      -999.25  12460.00060    103.00000      1.59540
       5495.69640   5493.51155     36.86451    166.28000      8.50000      8.61744      8.34422     11.48313    693.80466     33.34769    153.50000    129.00000    132.00000     25.95000      0.00000      0.00000      0.00000      -999.25      -999.25      0.00000      0.12492    646.36742   3541.10797      -999.25  12467.00012    103.00000      1.59624
       5495.84880   5493.66395     33.59488    168.58060      8.50000      8.60765      8.31995     11.36756    704.03852     23.03663      -999.25    138.00000      -999.25     19.50000      0.00000      0.00000      0.00000      0.00000      0.00000      0.24983      0.12492    646.36742   3512.39630   3585.00000  12454.99970    104.00000      1.59466
       5496.00120   5493.81635     35.73881    166.13770      8.50000      8.61392      8.35347     11.20697    697.15679     28.80624      -999.25    147.00000    162.00000     17.42000      0.00000      0.00000      0.00000      -999.25      -999.25      -999.25      -999.25    646.36742   3525.34672      -999.25  12454.99970    104.00000      1.59462
       5496.15360   5493.96874     36.79828    163.05420      8.50000      8.61392      8.34098     11.04424    697.83934     28.91204      -999.25    143.00000      -999.25     22.60000      0.00000      0.00000      0.00000      -999.25      -999.25      -999.25      -999.25    646.36742   3512.26867      -999.25  12460.99991    105.00000      1.59534
       5496.30600   5494.12114     36.37957    160.76940      8.50000      8.61093      8.29556     10.90835    692.47571     34.35889    113.00000    143.00000      -999.25     18.95000      0.00000      0.00000      0.00000      -999.25      -999.25      0.24983      0.12492    646.36742   3512.85027      -999.25  12492.99958    105.00000      1.59940
       5496.45840   5494.27354     30.27909    155.76910      8.50000      8.59862      8.28785     10.74164    695.05600     31.77057    136.00000    145.00000     84.00000     19.76000      0.00000      0.00000      0.00000      0.00000      0.00000      0.24983      0.12492    646.36742   3529.86319   3585.00000  12477.00047    106.00000      1.59730
       5496.61080   5494.42594     29.78964    140.49800      8.50000      8.61156      8.29065     10.61004    697.65592     29.08995      -999.25    142.00000     90.00000     19.19000      0.00000      0.00000      0.00000      -999.25      -999.25      -999.25      -999.25    646.36742   3550.64710      -999.25  12460.00060    106.00000      1.59508
       5496.76320   5494.57834     34.27324    112.64330      8.50000      8.62430      8.30065     10.40230    699.59047     27.38426      -999.25    132.00000      -999.25     20.30000      0.00000      0.00000      0.00000      -999.25      -999.25      -999.25      -999.25    646.36742   3525.47725      -999.25  12467.00012    106.00000      1.59594
